AREA_NM,New_ADDR,Old_ADDR,lat,lng
브랭섬홀아시아 아이스링크,제주특별자치도 서귀포시 대정읍 글로벌에듀로 234(3번게이트),제주특별자치도 서귀포시 대정읍 구억리 1121,33.2904196,126.2863328
(주)제주해양레저 투명카약,제주특별자치도 제주시 애월읍 애월로1길 22,제주특별자치도 제주시 애월읍 애월리 2490-1,33.4623327,126.3104764
1100고지(휴게소),제주특별자치도 서귀포시 1100로 1555,제주특별자치도 서귀포시 색달동 산1-3,33.3577838,126.4624306
1100고지습지,제주특별자치도 서귀포시 색달동 산 1-2,제주특별자치도 서귀포시 색달동 산 1-2,33.3575068,126.4628513
1112도로,제주특별자치도 제주시 명림로 584 (봉개동),제주특별자치도 제주시 봉개동 산78-1,33.4400577,126.6251975
4·3해원방사탑,제주특별자치도 제주시 신산로 82,제주특별자치도 제주시 일도이동 837-20,33.5054859,126.5347396
5.16도로숲터널,제주특별자치도 서귀포시 남원읍 신례리 산 2-1,제주특별자치도 서귀포시 남원읍 신례리 산 2-1,33.3642265,126.6050291
9.81 파크,제주특별자치도 제주시 애월읍 천덕로 880-24,제주특별자치도 제주시 애월읍 어음리 3916,33.3900369,126.3665090
998서프 삼양,제주특별자치도 제주시 선사로8길 33,제주특별자치도 제주시 삼양일동 1599-39,33.5268047,126.5886162
9연대 본부 옛터,제주특별자치도 서귀포시 대정읍 일주서로 2497,제주특별자치도 서귀포시 대정읍 상모리 3332,33.2291519,126.2626832
Cafe 몽스파,제주특별자치도 제주시 서사로 28,제주특별자치도 제주시 삼도일동 751-1,33.5098287,126.5195459
M1971 요트투어,제주특별자치도 서귀포시 대정읍 최남단해안로 128,제주특별자치도 서귀포시 대정읍 하모리 646-20,33.2101162,126.2571321
SM 디지털아트 뮤지엄,제주특별자치도 제주시 애월읍 애월해안로 516-7,제주특별자치도 제주시 애월읍 신엄리 2768-7,33.4772830,126.3592192
THE WE,제주특별자치도 서귀포시 1100로 453-95,제주특별자치도 서귀포시 회수동 30,33.2860122,126.4441678
WE호텔 웰니스센터,제주특별자치도 서귀포시 1100로 453-95,제주특별자치도 서귀포시 회수동 30,33.2860122,126.4441678
가마오름,제주특별자치도 제주시 한경면 청수서5길 63,제주특별자치도 제주시 한경면 청수리 847,33.3058186,126.2495481
가마오름 진지동굴,제주특별자치도 제주시 한경면 청수서5길 63,제주특별자치도 제주시 한경면 청수리 847,33.3058186,126.2495481
가메오름,제주특별자치도 제주시 애월읍 봉성리 산 125,제주특별자치도 제주시 애월읍 봉성리 산 125,33.3673821,126.3356000
가뫼물,제주특별자치도 서귀포시 남원읍 남위남성로 168,제주특별자치도 서귀포시 남원읍 남원리 2140-6,33.2899537,126.6934541
가문이오름(감은이오름),제주특별자치도 서귀포시 표선면 남조로 1487-73,제주특별자치도 서귀포시 표선면 가시리 산158,33.4014447,126.6757628
가세오름,제주특별자치도 서귀포시 표선면 녹산로 554,제주특별자치도 서귀포시 표선면 가시리 3795-2,33.3931579,126.7231751
가파도,제주특별자치도 서귀포시 대정읍 가파리,제주특별자치도 서귀포시 대정읍 가파리,33.16968,126.272423
가파도 마라도 정기여객선,제주특별자치도 서귀포시 대정읍 최남단해안로 120,제주특별자치도 서귀포시 대정읍 하모리 646-20,33.2100651,126.2583797
가파초등학교 마라분교장,제주특별자치도 서귀포시 대정읍 마라로 58,제주특별자치도 서귀포시 대정읍 가파리 696,33.1192926,126.2668551
각시바우오름,제주특별자치도 서귀포시 호근동 2112,제주특별자치도 서귀포시 호근동 2112,33.2767573,126.5269498
간세공방,제주특별자치도 서귀포시 중정로 22,제주특별자치도 서귀포시 서귀동 316-1,33.2474052,126.5586670
감귤박물관,제주특별자치도 서귀포시 효돈순환로 441,제주특별자치도 서귀포시 신효동 1200-6,33.2716170,126.6073620
감귤박물관 월라봉 산책로 - 생이소리길,제주특별자치도 서귀포시 효돈순환로 441,제주특별자치도 서귀포시 신효동 1200-6,33.2716170,126.6073620
감귤상웨빵 체험,제주특별자치도 서귀포시 남원읍 하례중앙로 95,제주특별자치도 서귀포시 남원읍 하례리 677,33.2691705,126.6253505
감성을담다,제주특별자치도 제주시 구좌읍 평대7길 20-1,제주특별자치도 제주시 구좌읍 평대리 579-8,33.5300317,126.8438297
감수굴 밭담길,제주특별자치도 제주시 구좌읍 평대7길 34,제주특별자치도 제주시 구좌읍 평대리 584-1,33.5310263,126.8432734
갑자기 히어로즈 벽화길,제주특별자치도 제주시 애월읍 금성1길 29-3,제주특별자치도 제주시 애월읍 금성리 569,33.4468828,126.2994452
갓전시관[갓전수교육관],제주특별자치도 제주시 조천읍 남조로 1904,제주특별자치도 제주시 조천읍 교래리 457-1,33.4372107,126.6706936
강병대교회,제주특별자치도 서귀포시 대정읍 상모대서로 43-3,제주특별자치도 서귀포시 대정읍 상모리 3846,33.2266620,126.2573767
강정어촌계,제주특별자치도 서귀포시 말질로 290,제주특별자치도 서귀포시 강정동 4964,33.2275652,126.4747232
강정천유원지,제주특별자치도 서귀포시 강정통물로 (강정동),제주특별자치도 서귀포시 강정동,,
개떼목장,제주특별자치도 서귀포시 안덕면 평화로 486 (덕수리),제주특별자치도 서귀포시 안덕면 덕수리 1513-1,33.2793574,126.3179374
개미남,제주특별자치도 제주시 구산로 26,제주특별자치도 제주시 아라일동 2408-18,33.4830372,126.5380272
개오름,제주특별자치도 서귀포시 표선면 성읍이리로57번길 162,제주특별자치도 서귀포시 표선면 성읍리 2974,33.4238323,126.7682184
개오리오름,제주특별자치도 제주시 봉개동,제주특별자치도 제주시 봉개동,33.491674,126.59467
개인공간,제주특별자치도 제주시 매촌1길 3-1,제주특별자치도 제주시 도련이동 542-1,33.5158783,126.5890249
갤러리2 중선농원,제주특별자치도 제주시 영평길 269,제주특별자치도 제주시 월평동 1348-3,33.4781559,126.5702490
거린오름 (북오름),제주특별자치도 서귀포시 안덕면 동광리 산 94,제주특별자치도 서귀포시 안덕면 동광리 산 94,33.3026811,126.3319998
거문오름(UNESCO 세계자연유산),제주특별자치도 제주시 조천읍 선교로 569-36,제주특별자치도 제주시 조천읍 선흘리 478,33.4568773,126.7142801
거믄여해안경승지,제주특별자치도 서귀포시 516로,제주특별자치도 서귀포시 토평동,,
거슨새미오름,제주특별자치도 제주시 구좌읍 송당리 산 145,제주특별자치도 제주시 구좌읍 송당리 산 145,33.4505976,126.7595225
거인의 정원,제주특별자치도 제주시 대원길 58,제주특별자치도 제주시 아라일동 2853-1,33.4718478,126.5352477
거친오름,제주특별자치도 제주시 명림로 520 (봉개동),제주특별자치도 제주시 봉개동 산51-2,33.4450254,126.6255747
건강과성박물관,제주특별자치도 서귀포시 안덕면 일주서로 1611,제주특별자치도 서귀포시 안덕면 감산리 1736,33.2548978,126.3467231
건강장수마을 산양리 농어촌체험마을,제주특별자치도 제주시 한경면 중산간서로 3169,제주특별자치도 제주시 한경면 청수리 3256-3,33.2939944,126.2329798
걸매생태공원,제주특별자치도 서귀포시 남성로 (서홍동),제주 서귀포시 서홍동 1207,,
걸매예술마을,제주특별자치도 서귀포시 서홍로 4-42,제주특별자치도 서귀포시 서홍동 470,33.2499840,126.5550633
걸서악오름,제주특별자치도 서귀포시 남원읍 하례로 393-1,제주특별자치도 서귀포시 남원읍 하례리 산124,33.2820445,126.6212002
검멀레동굴,제주특별자치도 제주시 우도면,제주특별자치도 제주시 우도면,33.506483,126.953051
검멀레해변,제주특별자치도 제주시 우도면 우도해안길,제주특별자치도 제주시 우도면 우도해안길,,
게우지코지,제주특별자치도 서귀포시 하효동,제주특별자치도 서귀포시 하효동,33.254292,126.6166
겨울이네,제주특별자치도 제주시 아란4길 91,제주특별자치도 제주시 아라일동 6064,33.4695083,126.5418694
고근산(고공산),제주특별자치도 서귀포시 고근산로202번길 48,제주특별자치도 서귀포시 서호동 1302-1,33.2707072,126.5127984
고내리 다락쉼터,제주특별자치도 제주시 애월읍 애월해안로 284,제주특별자치도 제주시 애월읍 고내리 463,33.4695789,126.3409324
고내리포구,제주특별자치도 제주시 애월읍 고내리,제주특별자치도 제주시 애월읍 고내리,33.469843,126.341913
"고내봉(고내오름,고니오름,망오름)",제주특별자치도 제주시 애월읍 고내리 산 3-1,제주특별자치도 제주시 애월읍 고내리 산 3-1,33.4601477,126.3412902
고사리숲,제주특별자치도 제주시 애월읍 평화로 2715 제주관광대학교 내 창업보육센터 본관 315호,제주특별자치도 제주시 애월읍 광령리 2535,33.4483838,126.4346020
고산일과해안도로,제주특별자치도 서귀포시 대정읍 영락하동로 9-6,제주특별자치도 서귀포시 대정읍 영락리 2169,33.2563921,126.2099568
고살리숲길,제주특별자치도 서귀포시 남원읍 하례리 산 54-2,제주특별자치도 서귀포시 남원읍 하례리 산 54-2,33.3172695,126.5984605
고씨주택,제주특별자치도 제주시 관덕로17길 27-1,제주특별자치도 제주시 일도일동 1243-1,33.5149206,126.5283001
고요산책,제주특별자치도 제주시 중앙로12길 5,제주특별자치도 제주시 이도일동 1387-3,33.5118121,126.5238642
고포잇다이브센터,제주특별자치도 서귀포시 이어도로 685-1,제주특별자치도 서귀포시 강정동 2628-1,33.2347219,126.4890329
고흐의 정원,제주특별자치도 서귀포시 성산읍 삼달신풍로 126-5,제주특별자치도 서귀포시 성산읍 삼달리 1185-2,33.3733880,126.8440680
곤물,제주특별자치도 서귀포시 안덕면 화순서서로64번길 64-4,제주특별자치도 서귀포시 안덕면 화순리 1190-1,33.2518998,126.3327957
곤흘동(곤을동) 마을터,제주특별자치도 제주시 화북1동 4438,제주특별자치도 제주시 화북1동 4438,33.5217931,126.5573380
골프탕탕,제주특별자치도 서귀포시 안덕면 산록남로 762번길 71,제주특별자치도 서귀포시 안덕면 상천리 380-7,33.3030343,126.3923592
곱닥한개,제주특별자치도 제주시 설촌로10길 12,제주특별자치도 제주시 삼양이동 2101-10,33.5238829,126.5827351
곱뜨락아띠 향수공방,제주특별자치도 서귀포시 안덕면 사계중앙로3번길 22,제주특별자치도 서귀포시 안덕면 사계리 2266-1,33.2301723,126.2997017
공방:하루_반,제주특별자치도 제주시 구좌읍 월정7길 42-6 1층,제주특별자치도 제주시 구좌읍 월정리 52,33.5543940,126.7972606
공천포,제주특별자치도 서귀포시 남원읍 신례리,제주특별자치도 서귀포시 남원읍 신례리,33.339574,126.617913
공천포구,제주특별자치도 서귀포시 남원읍 신례리,제주특별자치도 서귀포시 남원읍 신례리,33.339574,126.617913
곶자왈,제주특별자치도 서귀포시 대정읍 신평리,제주특별자치도 서귀포시 대정읍 신평리,33.268921,126.257923
곽지패총,제주특별자치도 제주시 애월읍 곽지리 2043-1,제주특별자치도 제주시 애월읍 곽지리 2043-1,33.4459728,126.3070699
곽지해수욕장,제주특별자치도 제주시 애월읍 애월원당길 (곽지리),제주특별자치도 제주시 애월읍 애월원당길 (곽지리),,
곽지해수욕장야영장,제주특별자치도 제주시 애월읍 곽지리 1565,명제주특별자치도 제주시 애월읍 곽지1길 31,33.4502185,126.3048354
관덕정,제주특별자치도 제주시 관덕로 19,제주특별자치도 제주시 삼도이동 983-1,33.5133940,126.5214658
관음사,제주특별자치도 제주시 산록북로 660,제주특별자치도 제주시 아라일동 387,33.4217218,126.5587513
관음사 군 주둔지 옛터,제주특별자치도 제주시 산록북로 660,제주특별자치도 제주시 아라일동 387,33.4217218,126.5587513
관음사 야영장,제주특별자치도 제주시 산록북로 588,제주특별자치도 제주시 오등동 산180-3,33.4222299,126.5509940
관음사 템플스테이,제주시 산록북로 660,제주특별자치도 제주시 아라일동 387,33.4217218,126.5587513
광령귤나무,제주특별자치도 제주시 애월읍 광령8길 24-2,제주특별자치도 제주시 애월읍 광령리 1165-1,33.4590067,126.4390360
광치기해변,제주특별자치도 서귀포시 성산읍 섭지코지로 63,제주특별자치도 서귀포시 성산읍 고성리 224-18,33.4369770,126.9224155
교래자연휴양림,제주특별자치도 제주시 조천읍 남조로 2023,제주특별자치도 제주시 조천읍 교래리 산95,33.4513670,126.6567103
구엄리돌염전,제주특별자치도 제주시 애월읍 애월해안로 708,제주특별자치도 제주시 애월읍 구엄리 609-1,33.4825686,126.3773817
구엄포구,제주특별자치도 제주시 애월읍 구엄리,제주특별자치도 제주시 애월읍 구엄리,33.4789,126.3812
구좌 하도어촌계,제주특별자치도 제주시 구좌읍 해맞이해안로 1897-27,제주특별자치도 제주시 구좌읍 하도리 22-10,33.5200328,126.9040561
구좌해안로,제주특별자치도 제주시 구좌읍 구좌해안로,제주특별자치도 제주시 구좌읍 동복리,,
국립제주박물관,제주특별자치도 제주시 일주동로 17,제주특별자치도 제주시 건입동 261,33.5134250,126.5488630
"군산(군산오름,코메오름)",제주특별자치도 서귀포시 안덕면 창천리 산 3-1,제주특별자치도 서귀포시 안덕면 창천리 산 3-1,33.2518336,126.3680837
굴동포구,제주특별자치도 제주시 구좌읍 해맞이해안로,제주 제주시 구좌읍 하도리 385-12,,
굿다이버,제주특별자치도 서귀포시 중산간서로 41 (강정동),제주특별자치도 서귀포시 강정동 1528-3,33.2610658,126.5060608
궁대오름(궁대악),제주특별자치도 서귀포시 성산읍 금백조로 446,제주특별자치도 서귀포시 성산읍 수산리 4711-1,33.4405544,126.8220477
귀덕연대,제주특별자치도 제주시 한림읍 귀덕14길 14-5,제주특별자치도 제주시 한림읍 귀덕리 1118,33.4424430,126.2935288
귀빈사,제주특별자치도 제주시 구좌읍 비자림로 1456,제주특별자치도 제주시 구좌읍 송당리 2438,33.4447500,126.7591021
귤밭76번지,제주특별자치도 제주시 화북이동 5495-2,제주특별자치도 제주시 화북이동 5495-2,33.4931300,126.5562635
귤빛캠핑장,제주특별자치도 제주시 조천읍 함와로 428,제주특별자치도 제주시 조천읍 대흘리 172,33.5039328,126.6737923
그랑블루 요트투어,제주특별자치도 서귀포시 대포로 174,제주특별자치도 서귀포시 대포동 2367-1,33.2387873,126.4394909
그랑블루호(선상낚시),제주특별자치도 서귀포시 남원읍 위미중앙로180번길 10,제주특별자치도 서귀포시 남원읍 위미리 1881-2,33.2746491,126.6625231
그루밍시즌,제주특별자치도 서귀포시 동홍로 29,제주특별자치도 서귀포시 서귀동 260-13,33.2510272,126.5675820
그루밍제주,제주특별자치도 서귀포시 천제연로 357,제주특별자치도 서귀포시 회수동 556,33.2525227,126.4427510
그리스신화박물관 / 트릭아이미술관,제주특별자치도 제주시 한림읍 광산로 942,제주특별자치도 제주시 한림읍 금악리 산30-12,33.3480832,126.3574887
그린크루즈(산방산유람선),제주특별자치도 서귀포시 안덕면 화순해안로106번길 16,제주특별자치도 서귀포시 안덕면 화순리 636-15,33.2370398,126.3352069
그린페블,제주특별자치도 제주시 한림읍 수동7길 54-3,제주특별자치도 제주시 한림읍 월림리 723,33.3457058,126.2489602
그제바람 윈드서핑패들보드,제주특별자치도 제주시 선사로8길 13-4,제주특별자치도 제주시 삼양일동 1569-42,33.5260231,126.5868447
금능석물원,제주특별자치도 제주시 한림읍 한림로 176,제주특별자치도 제주시 한림읍 금능리 1282-9,33.3846949,126.2267681
금능포구,제주특별자치도 제주시 한림읍 금능리,제주특별자치도 제주시 한림읍 금능리,33.380733,126.230142
금능해수욕장,제주특별자치도 제주시 한림읍 금능길 119-10,제주특별자치도 제주시 한림읍 금능리 2026,33.3904006,126.2362051
금당목장ATV,제주특별자치도 서귀포시 안덕면 신화역사로685번길 13-16,제주특별자치도 서귀포시 안덕면 동광리 57,33.3141435,126.3580790
금덕무환자나무및팽나무군락,제주특별자치도 제주시 애월읍 유수암리 1920,제주특별자치도 제주시 애월읍 유수암리 1920,33.4417531,126.4006290
금룡사,제주특별자치도 제주시 구좌읍 김녕로 148-11,제주특별자치도 제주시 구좌읍 김녕리 1145-49,33.5537672,126.7537508
금룡사 템플스테이,제주특별자치도 제주시 구좌읍 김녕로 148-11,제주특별자치도 제주시 구좌읍 김녕리 1145-49,33.5537672,126.7537508
금붕사,제주특별자치도 제주시 구좌읍 일주동로 3618-1,제주특별자치도 제주시 구좌읍 하도리 994,33.5013662,126.8886376
금성포구,제주특별자치도 제주시 애월읍 금성리 573-1,제주특별자치도 제주시 애월읍 금성리 573-1,33.4468154,126.2981709
금악오름(왕매),제주특별자치도 제주시 한림읍 금악리 산 1-1,제주특별자치도 제주시 한림읍 금악리 산 1-1,33.3557192,126.3055734
기독교순례길 1코스(순종의길),제주특별자치도 제주시 애월읍 금성하안길 3,제주특별자치도 제주시 애월읍 금성리 436-3,33.4465347,126.3026885
기독교순례길 2코스(순교의길),제주특별자치도 제주시 한림읍 협재8길 8,제주특별자치도 제주시 한림읍 협재리 1791,33.3947249,126.2430036
기독교순례길 3코스(사명의길),제주특별자치도 제주시 한경면 조수3길 7,제주특별자치도 제주시 한경면 조수리 331-1,33.3368943,126.2310688
기독교순례길 4코스(화해의길),제주특별자치도 서귀포시 대정읍 추사로36번길 11,제주특별자치도 서귀포시 대정읍 안성리 1639,33.2509517,126.2794418
김경숙해바라기농장,제주특별자치도 제주시 번영로 854-1,제주특별자치도 제주시 회천동 391,33.4774072,126.6275924
김녕 지질트레일,제주특별자치도 제주시 구좌읍 김녕로 209,제주특별자치도 제주시 구좌읍 김녕리 497-1,33.5551855,126.7627461
김녕 청굴물,제주특별자치도 제주시 구좌읍 김녕리 1296,명제주특별자치도 제주시 구좌읍 김녕로1길 75-1,33.5580065,126.7512642
김녕금속공예벽화마을,제주특별자치도 제주시 구좌읍 김녕항3길 18-16,제주특별자치도 제주시 구좌읍 김녕리 4001,33.5579228,126.7465237
김녕사굴,제주특별자치도 제주시 구좌읍 덕천리 201-4,명제주특별자치도 제주시 구좌읍 덕평로 392-1,33.5010014,126.7735871
김녕요트투어,제주특별자치도 제주시 구좌읍 구좌해안로 229-16,제주특별자치도 제주시 구좌읍 김녕리 4212-1,33.5582322,126.7371770
김녕항,제주특별자치도 제주시 구좌읍 김녕항1길 50-13,제주특별자치도 제주시 구좌읍 김녕리 4074-2,33.5580462,126.7400323
김녕해수욕장,제주특별자치도 제주시 구좌읍 구좌해안로 237,제주특별자치도 제주시 구좌읍 김녕리 4330,33.5572044,126.7365351
김녕해수욕장야영장,제주특별자치도 제주시 구좌읍 해맞이해안로 7-6,제주특별자치도 제주시 구좌읍 김녕리 497-4,33.5571035,126.7598429
김녕해안도로,제주특별자치도 제주시 구좌읍 김녕리,제주특별자치도 제주시 구좌읍 김녕리,33.550392,126.742713
김만덕객주,제주특별자치도 제주시 임항로 68,제주특별자치도 제주시 건입동 984-41,33.5165891,126.5321868
김만덕기념관,제주특별자치도 제주시 산지로 7,제주특별자치도 제주시 건입동 1164,33.5158754,126.5304021
김서프제주,제주특별자치도 서귀포시 색달로81번길 39,제주특별자치도 서귀포시 색달동 1992,33.2616945,126.4081050
김영갑갤러리 두모악,제주특별자치도 서귀포시 성산읍 삼달로 137,제주특별자치도 서귀포시 성산읍 삼달리 437-5,33.3723798,126.8542528
김영수도서관,제주특별자치도 제주시 중앙로8길 18,제주특별자치도 제주시 삼도이동 17-3,33.5151927,126.5222118
김택화미술관,제주특별자치도 제주시 조천읍 신흥로 1,제주특별자치도 제주시 조천읍 신흥리 227-5,33.5437575,126.6531786
김한미술관 & 카페3206,제주특별자치도 제주시 한림읍 한상로 115,제주특별자치도 제주시 한림읍 상대리 3206,33.4090431,126.2871683
까끄래기오름,제주특별자치도 제주시 조천읍 교래리 128,제주특별자치도 제주시 조천읍 교래리 128,33.4307797,126.7027176
꽃썸,서귀포시 안덕면 동광로 151,제주특별자치도 서귀포시 안덕면 동광리 950-3,33.3097218,126.3401463
꿈바당 어린이도서관,제주특별자치도 제주시 연오로 140,제주특별자치도 제주시 연동 463,33.4805266,126.4997474
나바론절벽,제주특별자치도 제주시 추자면 영흥리 산 19,제주특별자치도 제주시 추자면 영흥리 산 19,33.9564396,126.2939355
나틸다,제주특별자치도 제주시 아란5길 31-6,제주특별자치도 제주시 아라일동 6093-2,33.4737473,126.5443931
낙선동 4.3성,제주특별자치도 제주시 조천읍 선흘서5길 13,제주특별자치도 제주시 조천읍 선흘리 2734-5,33.5148924,126.6945056
낙천리아홉굿의자마을,제주특별자치도 제주시 한경면 낙수로 97,제주특별자치도 제주시 한경면 낙천리 1913,33.3279002,126.2262664
낙천아홉굿마을 의자공원,제주특별자치도 제주시 한경면 낙수로 97,제주특별자치도 제주시 한경면 낙천리 1913,33.3279002,126.2262664
낙타트래킹,제주특별자치도 서귀포시 표선면 번영로 2564-21,제주특별자치도 서귀포시 표선면 성읍리 2684,33.4027143,126.7786654
남내소,제주특별자치도 서귀포시 남원읍 하례로,제주특별자치도 서귀포시 남원읍 하례리,,
남두연대,제주특별자치도 제주시 애월읍 신엄리 2780-1,제주특별자치도 제주시 애월읍 신엄리 2780-1,33.4791922,126.3584343
남문지못,제주특별자치도 서귀포시 대정읍 인성리 392,제주특별자치도 서귀포시 대정읍 인성리 392,33.2465691,126.2763270
남수각 하늘길 벽화거리,제주특별자치도 제주시 중앙로13길 32,제주특별자치도 제주시 일도일동 1100-12,33.5113852,126.5277826
남원 위미2리 어촌계,제주특별자치도 서귀포시 남원읍 태위로 208,제주특별자치도 서귀포시 남원읍 위미리 1662-1,33.2748503,126.6693978
남원큰엉해변,제주특별자치도 서귀포시 남원읍 태위로 522-17,제주특별자치도 서귀포시 남원읍 남원리 2379-3,33.2733537,126.7036975
남원항 (남원포구),제주특별자치도 서귀포시 남원읍 남태해안로 140,제주특별자치도 서귀포시 남원읍 남원리 91-6,33.2778173,126.7196046
납읍난대림 금산공원,제주특별자치도 제주시 애월읍 납읍리 14 57,제주특별자치도 제주시 애월읍 납읍리 14 57,,
내창트레킹,제주특별자치도 서귀포시 남원읍 하례중앙로 95,제주특별자치도 서귀포시 남원읍 하례리 677,33.2691705,126.6253505
너도나도 ATV,제주특별자치도 제주시 조천읍 비자림로 1053,제주특별자치도 제주시 조천읍 교래리 38,33.4347234,126.7172088
너븐숭이 4.3기념관,제주특별자치도 제주시 조천읍 북촌3길 3,제주특별자치도 제주시 조천읍 북촌리 1599,33.5460288,126.6886490
넥슨컴퓨터박물관,제주특별자치도 제주시 1100로 3198-8,제주특별자치도 제주시 노형동 86,33.4721340,126.4857603
노루생태관찰원,제주특별자치도 제주시 명림로 520,제주특별자치도 제주시 봉개동 산51-2,33.4450254,126.6255747
노리매공원,제주특별자치도 서귀포시 대정읍 중산간서로 2260-15,제주특별자치도 서귀포시 대정읍 구억리 654-1,33.2825442,126.2873438
노을승마장,제주특별자치도 제주시 우도면 우도해안길 406-1,제주특별자치도 제주시 우도면 연평리 2358,33.5129545,126.9464626
노을해안1014,제주특별자치도 제주시 한경면 노을해안로 1014,제주특별자치도 제주시 한경면 고산리 3431-1,33.2976616,126.1685768
노을해안로,제주특별자치도 서귀포시 대정읍 노을해안로 24,제주특별자치도 서귀포시 대정읍 일과리 1424-1,33.2425099,126.2243936
노형수퍼마켙,제주특별자치도 제주시 노형로 89,제주특별자치도 제주시 해안동 2137-1,33.4649797,126.4552065
녹산로유채꽃길,제주특별자치도 서귀포시 표선면 가시리 산 87-15,제주특별자치도 서귀포시 표선면 가시리 산 87-15,33.3984453,126.7198957
논짓물,제주특별자치도 서귀포시 하예동,제주특별자치도 서귀포시 하예동,33.2394,126.3804
놀멍쉬멍고르멍(애견카페),제주특별자치도 서귀포시 현청로 51,제주특별자치도 서귀포시 서홍동 136-1,33.2657302,126.5558987
놀자개,제주특별자치도 제주시 오광로 143,제주특별자치도 제주시 노형동 3702-2,33.4838217,126.4621154
농개,제주특별자치도 서귀포시 성산읍 환해장성로111번길 4,제주특별자치도 서귀포시 성산읍 신산리 561-1,33.3817856,126.8799801
높은오름,제주특별자치도 제주시 구좌읍 송당리 산 213-1,제주특별자치도 제주시 구좌읍 송당리 산 213-1,33.4573183,126.7925658
누운오름(한림읍),제주특별자치도 제주시 한림읍 금악리 188-2,제주특별자치도 제주시 한림읍 금악리 188-2,33.3639311,126.3240796
누웨마루거리(구 바오젠),제주특별자치도 제주시 신광로 47,제주특별자치도 제주시 연동 273-1,33.4877438,126.4902758
눈물의십자가,제주특별자치도 제주시 추자도,제주특별자치도 제주시 추자도,,
느지리오름(망오름),제주특별자치도 제주시 한림읍 상명리 산 5,명제주특별자치도 제주시 한림읍 봉수대길 5,33.3655889,126.2611441
니모스토리,제주특별자치도 제주시 구좌읍 김녕로17길 33-1,제주특별자치도 제주시 구좌읍 김녕리 1267-1,33.5582579,126.7539900
다끄네포구(용담포구),제주특별자치도 제주시 용담3동,제주특별자치도 제주시 용담3동,33.516513,126.496333
다랑쉬굴,제주특별자치도 제주시 구좌읍 세화리 2608-6,제주특별자치도 제주시 구좌읍 세화리 2608-6,33.4696790,126.8317919
다랑쉬마을,제주특별자치도 제주시 구좌읍 다랑쉬로 406-25,제주특별자치도 제주시 구좌읍 세화리 2668-2,33.4705193,126.8234146
다랑쉬오름(월랑봉),제주특별자치도 제주시 구좌읍 세화리 2705,제주특별자치도 제주시 구좌읍 세화리 2705,33.4749891,126.8264868
다려도,제주특별자치도 제주시 조천읍 북촌리,제주특별자치도 제주시 조천읍 북촌리,33.545242,126.697463
다이나믹메이즈,제주특별자치도 서귀포시 표선면 번영로 2644,제주특별자치도 서귀포시 표선면 성읍리 2381,33.3990993,126.7846735
단산(바굼지오름),제주특별자치도 서귀포시 안덕면 향교로 165-23,제주특별자치도 서귀포시 안덕면 사계리 3124,33.2399333,126.2896191
단산과 방사탑,제주특별자치도 제주시 조천읍 신흥로1길 25,제주특별자치도 제주시 조천읍 신흥리 512-1,33.5474207,126.6504647
달다제주,제주특별자치도 제주시 조천읍 조함해안로 9,제주특별자치도 제주시 조천읍 조천리 2593-3,33.5386280,126.6386205
닭머르해안길,제주특별자치도 제주시 조천읍 신촌북3길 62-1,제주특별자치도 제주시 조천읍 신촌리 2408-1,33.5378165,126.6132560
답다니 탑망대 (하트원담),제주특별자치도 제주시 우도면 연평리 798,제주특별자치도 제주시 우도면 연평리 798,33.5245738,126.9525447
"당산봉(당오름,차귀오름)",제주특별자치도 제주시 한경면 고산리 산 15,제주특별자치도 제주시 한경면 고산리 산 15,33.3074829,126.1721186
당오름,제주특별자치도 제주시 구좌읍 송당리 산 199-1,제주특별자치도 제주시 구좌읍 송당리 산 199-1,33.4672188,126.7758521
당오름(안덕면),제주특별자치도 서귀포시 안덕면 동광리 산 68-1,제주특별자치도 서귀포시 안덕면 동광리 산 68-1,33.3332576,126.3359730
당오름(한경면),제주특별자치도 제주시 한경면 용수리 산 18,제주특별자치도 제주시 한경면 용수리 산 18,33.3082614,126.1735352
당케산물(당케포구),제주특별자치도 서귀포시 표선면 표선당포로,제주 서귀포시 표선면 표선리 1-2,,
대림리선돌,제주특별자치도 제주시 한림읍 대림리,제주특별자치도 제주시 한림읍 대림리,33.418335,126.282088
"대수산봉(큰물뫼,물미오름)",제주특별자치도 서귀포시 성산읍 고성리 2039-1,제주특별자치도 서귀포시 성산읍 고성리 2039-1,33.4382463,126.9036383
대수포구,제주특별자치도 제주시 한림읍 수원리 1027-7,제주특별자치도 제주시 한림읍 수원리 1027-7,33.4269644,126.2689040
"대왕산 (왕뫼, 왕메, 왕미)",제주특별자치도 서귀포시 성산읍 수산리 1429,제주특별자치도 서귀포시 성산읍 수산리 1429,33.4574534,126.8720781
대유ATV수렵사격랜드,제주특별자치도 서귀포시 상예로 381,제주특별자치도 서귀포시 상예동 144,33.2776170,126.3950620
대장금촬영지(제주민속촌),제주특별자치도 서귀포시 표선면 민속해안로 631-34,제주특별자치도 서귀포시 표선면 표선리 40-1,33.3212872,126.8430883
대정면 4.3사건 위령비,제주특별자치도 서귀포시 대정읍 동일하모로 158-3,제주특별자치도 서귀포시 대정읍 하모리 1224,33.2254111,126.2484055
대정해변(하모해변),제주특별자치도 서귀포시 대정읍 하모리,제주특별자치도 서귀포시 대정읍 하모리,33.219779,126.252351
대정향교,제주특별자치도 서귀포시 안덕면 향교로 165-17,제주특별자치도 서귀포시 안덕면 사계리 3126-1,33.2392812,126.2884871
대정현역사자료전시관,제주특별자치도 서귀포시 대정읍 상모대서로 17,제주특별자치도 서귀포시 대정읍 상모리 3862-1,33.2251578,126.2562747
대평포구,제주특별자치도 서귀포시 안덕면 감천로190번길 9-62-2,제주 서귀포시 안덕면 창천리 914-5,,
대포포구,제주특별자치도 서귀포시 대포로,제주 서귀포시 대포동,,
대한민국최남단기념비/ 마라도 기념비,제주특별자치도 서귀포시 대정읍 마라로 131,제주특별자치도 서귀포시 대정읍 가파리 583-9,33.1140882,126.2683745
댕댕놀이터,제주특별자치도 제주시 도근내길 56,제주특별자치도 제주시 내도동 720,33.4918903,126.4369090
댕댕샤워,제주특별자치도 제주시 애월읍 하귀9길 54-8,제주특별자치도 제주시 애월읍 하귀1리 161-10,33.4827919,126.4147620
더 플래닛(THE PLANET),제주특별자치도 서귀포시 천제연로 70,제주특별자치도 서귀포시 색달동 2558,33.2552141,126.4129522
"더럭초등학교(구, 더럭분교)",제주특별자치도 제주시 애월읍 하가로 195,제주특별자치도 제주시 애월읍 하가리 1580-1,33.4536197,126.3454657
더마카트,제주특별자치도 제주시 한림읍 월림7길 155,제주특별자치도 제주시 한림읍 월림리 2364,33.3549227,126.2430804
더마파크,제주특별자치도 제주시 한림읍 월림7길 155,제주특별자치도 제주시 한림읍 월림리 2364,33.3549227,126.2430804
더펫츠,제주특별자치도 제주시 1100로 3124,제주특별자치도 제주시 노형동 156-8,33.4653730,126.4853087
더힐하우스스파,제주특별자치도 제주시 한림읍 한창로 925-122,제주특별자치도 제주시 한림읍 금악리 84-1,33.3363438,126.3109166
덕천곤충영농조합,제주특별자치도 제주시 구좌읍 중산간동로 1875,제주특별자치도 제주시 구좌읍 덕천리 1252,33.4829220,126.7482914
덕천리 팔자 좋아 길,제주특별자치도 제주시 구좌읍 중산간동로,제주특별자치도 제주시 구좌읍 덕천리,,
뎁스원 프리다이빙센터,제주특별자치도 제주시 한림읍 한림로 375,제주특별자치도 제주시 한림읍 협재리 1890,33.3962392,126.2432403
도곤도곤 애견미용실,제주특별자치도 제주시 성신로1길 21,제주특별자치도 제주시 연동 2326-13,33.4918521,126.4877028
도그앤캣,제주특별자치도 서귀포시 홍중로 119-2  601동 107호,제주특별자치도 서귀포시 서홍동 2598,33.2635550,126.5553688
도도펫,제주특별자치도 제주시 우령8길 63-16,제주특별자치도 제주시 외도일동 633-17,33.4853502,126.4282338
도두동 무지개 해안도로,제주특별자치도 제주시 도두1동,제주특별자치도 제주시 도두1동,33.5009,126.4722
도두봉,제주특별자치도 제주시 도두동 산 1,제주특별자치도 제주시 도두동 산 1,33.5085195,126.4690186
도두항,제주특별자치도 제주시 도공로 2,제주특별자치도 제주시 도두일동 2614-5,33.5061379,126.4649906
도두해안도로,제주특별자치도 제주시 도두2동 706-3,제주특별자치도 제주시 도두2동 706-3,33.5103681,126.4822964
도령모루,제주특별자치도,제주특별자치도,33.427337,126.575834
도리미오름,제주특별자치도 제주시 구좌읍 송당리 산 255-1,제주특별자치도 제주시 구좌읍 송당리 산 255-1,33.4286726,126.7664584
도순다원,제주특별자치도 서귀포시 중산간서로356번길 152-41,제주특별자치도 서귀포시 도순동 1-1,33.2723868,126.4828936
도시해녀,제주특별자치도 제주시 애월읍 하귀미수포길 16-1,제주특별자치도 제주시 애월읍 하귀2리 1670-1,33.4842678,126.4025625
도치돌 알파카목장,제주특별자치도 제주시 애월읍 도치돌길 293,제주특별자치도 제주시 애월읍 납읍리 102,33.4099569,126.3657428
독자봉,제주특별자치도 서귀포시 성산읍 신산리 1785,제주특별자치도 서귀포시 성산읍 신산리 1785,33.3878598,126.8542903
돈내코,제주특별자치도 서귀포시 516로 (상효동),제주특별자치도 서귀포시 상효동 1460-3 돈내코왕휴게소,,
돈내코유원지,제주특별자치도 서귀포시 돈내코로 120,제주특별자치도 서귀포시 상효동 1460-3,33.3001307,126.5844363
돈대산,제주특별자치도 제주시 추자면 예초리 산 67-1,제주특별자치도 제주시 추자면 예초리 산 67-1,33.9496464,126.3217843
돈대산산림휴양산책로,제주특별자치도 제주시 추자면 예초리 산 67-1,제주특별자치도 제주시 추자면 예초리 산 67-1,33.9496464,126.3217843
돔박이오름 (동박악),제주특별자치도 서귀포시 안덕면 광평리 산 89,제주특별자치도 서귀포시 안덕면 광평리 산 89,33.3394880,126.3640292
돔베낭골,제주특별자치도 서귀포시 호근동,제주특별자치도 서귀포시 호근동,33.273783,126.5318
돔베낭길,제주특별자치도 서귀포시 태평로92번길 49,제주특별자치도 서귀포시 호근동 1619,33.2401678,126.5318478
동거문이오름,제주특별자치도 제주시 구좌읍 종달리 산 70,제주특별자치도 제주시 구좌읍 종달리 산 70,33.4487593,126.8053368
동계 정온 유허비,제주특별자치도 서귀포시 대정읍 안성리,제주특별자치도 서귀포시 대정읍 안성리,33.2626,126.2864
동굴의 다원 다희연,제주특별자치도 제주시 조천읍 선교로 266,제주특별자치도 제주시 조천읍 선흘리 2019-3,33.4792795,126.7005448
동귀방파제,제주특별자치도 제주시 애월읍 하귀리,제주특별자치도 제주시 애월읍 하귀리,,
동백동산,제주특별자치도 제주시 조천읍 선흘리 산 12,제주특별자치도 제주시 조천읍 선흘리 산 12,33.5165903,126.7170265
동백포레스트,서귀포시 남원읍 신례리 1767,명제주특별자치도 서귀포시 남원읍 생기악로 53-38,33.3002996,126.6362031
동복환해장성,제주특별자치도 제주시 구좌읍 동복리,제주특별자치도 제주시 구좌읍 동복리,33.549967,126.711713
동산농원 딸기체험장,제주특별자치도 제주시 한경면 저지리 1448-2,제주특별자치도 제주시 한경면 저지리 1448-2,33.3336023,126.2459293
동알오름,제주특별자치도 서귀포시 대정읍 상모리 153,제주특별자치도 서귀포시 대정읍 상모리 153,33.2071762,126.2887965
동일리포구,제주특별자치도 서귀포시 대정읍 동일리,제주특별자치도 서귀포시 대정읍 동일리,33.2429,126.2504
돛오름,제주특별자치도 제주시 구좌읍 송당리 산 3,제주특별자치도 제주시 구좌읍 송당리 산 3,33.4804864,126.7995126
두맹이골목,제주특별자치도 제주시 동문로16길 17-4,제주특별자치도 제주시 일도이동 990-11,33.5120102,126.5349162
두산봉(말미오름),제주특별자치도 서귀포시 성산읍 시흥리 산 1-5,제주특별자치도 서귀포시 성산읍 시흥리 산 1-5,,
둔지봉,제주특별자치도 제주시 구좌읍 한동리 산 40,제주특별자치도 제주시 구좌읍 한동리 산 40,33.5015303,126.7971899
뒤굽은이오름,제주특별자치도 서귀포시 성산읍 수산리 4504,제주특별자치도 서귀포시 성산읍 수산리 4504,33.4310285,126.8272503
드라마월드,제주특별자치도 제주시 애월읍 화전길 3,제주특별자치도 제주시 애월읍 봉성리 4556,33.3519447,126.3605387
드르쿰다ATV IN 상효,제주특별자치도 서귀포시 516로 619,제주특별자치도 서귀포시 상효동 1147-1,33.3035235,126.5985181
들렁모루 산책길,제주특별자치도 서귀포시 서홍동 2437,제주특별자치도 서귀포시 서홍동 2437,33.2824547,126.5426370
등머을레져,제주특별자치도 제주시 우도면 우도해안길 70,제주특별자치도 제주시 우도면 연평리 1737-13,33.4928568,126.9515778
디스커버제주,제주특별자치도 서귀포시 대포로 26,제주특별자치도 서귀포시 대포동 760-3,33.2474096,126.4314837
디어펫,제주특별자치도 제주시 과원로 47,제주특별자치도 제주시 연동 1531-7,33.4765042,126.4883114
디퍼프리다이브,제주특별자치도 서귀포시 칠십리로 157,제주특별자치도 서귀포시 서귀동 101-4,33.2450789,126.5699639
따라비오름,제주특별자치도 서귀포시 표선면 가시리 산 62,제주특별자치도 서귀포시 표선면 가시리 산 62,33.3860697,126.7502627
라니멜레,제주특별자치도 제주시 조천읍 조천우회로 527,제주특별자치도 제주시 조천읍 함덕리 1752-2,33.5314062,126.6654862
라신동,제주특별자치도 제주시 한림읍 귀덕리,제주특별자치도 제주시 한림읍 귀덕리,33.430793,126.291425
라온골프클럽,제주특별자치도 제주시 한경면 용금로 998,제주특별자치도 제주시 한경면 저지리 산18,33.3395484,126.2781567
라온승마클럽,제주특별자치도 제주시 한림읍 월림7길 155,제주특별자치도 제주시 한림읍 월림리 2364,33.3549227,126.2430804
라온주 실내체험동물원,제주특별자치도 제주시 한림읍 월림7길 155,제주특별자치도 제주시 한림읍 월림리 2364,33.3549227,126.2430804
라이크더윈드 스튜디오,제주특별자치도 제주시 구좌읍 구좌로 51,제주특별자치도 제주시 구좌읍 세화리 1465-15,33.5232262,126.8570013
라인업서프 하도,제주특별자치도 제주시 구좌읍 하도13길 55,제주특별자치도 제주시 구좌읍 하도리 880-12,33.5108440,126.8921220
러블리독스,제주특별자치도 제주시 연북로 668,제주특별자치도 제주시 이도이동 122-1,33.4923814,126.5482977
런닝맨,제주특별자치도 서귀포시 중문관광로 42,제주특별자치도 서귀포시 색달동 2629,33.2548060,126.4089300
레더한,제주특별자치도 서귀포시 남원읍 태위로 773-19,제주특별자치도 서귀포시 남원읍 태흥리 1760-13,33.2837365,126.7276608
레이저서바이벌M,제주특별자치도 제주시 신광로 58 4층,제주특별자치도 제주시 연동 262-8,33.4870697,126.4896455
렛츠런파크,제주특별자치도 제주시 애월읍 평화로 2144,제주특별자치도 제주시 애월읍 유수암리 1206,33.4098460,126.3931368
렛츠런팜 양귀비꽃,제주특별자치도 제주시 조천읍 남조로 1660,제주특별자치도 제주시 조천읍 교래리 산25-2,33.4189631,126.6811664
렛츠런팜제주,제주특별자치도 제주시 조천읍 남조로 1660,제주특별자치도 제주시 조천읍 교래리 산25-2,33.4189631,126.6811664
로로 요가,제주특별자치도 제주시 구좌읍 김녕로17길 33-1 (김녕리),제주특별자치도 제주시 구좌읍 김녕리 1267-1,33.5582579,126.7539900
로봇플래닛,제주특별자치도 서귀포시 안덕면 신화역사로188번길 151,제주특별자치도 서귀포시 안덕면 서광리 산35-22,33.2965927,126.3083111
롯데호텔 브이스파,"제주특별자치도 서귀포시 중문관광로72번길 35, lobby floor 8F",제주특별자치도 서귀포시 색달동 2812-4,33.2486874,126.4105140
루씨쏜 아뜰리에,제주특별자치도 서귀포시 보목로64번길 138 (보목동) 보목로 64번길 138 1층,제주특별자치도 서귀포시 보목동 1405-1,33.2412653,126.5930567
리틀프린스뮤지엄,제주특별자치도 서귀포시 중문관광로110번길 15 리틀프린스뮤지엄,제주특별자치도 서귀포시 색달동 2864-36,33.2500441,126.4130050
마라도 섬투어,제주특별자치도 서귀포시 대정읍 마라로 65,제주특별자치도 서귀포시 대정읍 가파리 701,33.1180564,126.2663300
마라도(마라해양도립공원),제주특별자치도 서귀포시 대정읍 마라로101번길 46,제주특별자치도 서귀포시 대정읍 가파리 600-1,33.1186178,126.2670927
마라도관광쉼터,제주특별자치도 서귀포시 대정읍 마라로 139,제주특별자치도 서귀포시 대정읍 가파리 736,,
마라도기원정사,제주특별자치도 서귀포시 대정읍 마라로 87,제주특별자치도 서귀포시 대정읍 가파리 736,33.1160773,126.2666815
마라도등대,제주특별자치도 서귀포시 대정읍 가파리 642,제주특별자치도 서귀포시 대정읍 가파리 642,33.1167689,126.2694002
마라도성당,제주특별자치도 서귀포시 대정읍 마라로 153,제주특별자치도 서귀포시 대정읍 가파리 662,33.1157466,126.2691199
마라도잠수함,제주특별자치도 서귀포시 안덕면 형제해안로 13,제주특별자치도 서귀포시 안덕면 사계리 2147-32,33.2280617,126.3053993
마방목지,제주특별자치도 제주시 516로 2480,제주특별자치도 제주시 용강동 산14-34,33.4276387,126.6035946
마복이오름,제주특별자치도 서귀포시 안덕면 상천리 산 83,제주특별자치도 서귀포시 안덕면 상천리 산 83,33.3195088,126.3911457
마오름(한경),제주특별자치도 제주시 한경면 저지리 산 56,제주특별자치도 제주시 한경면 저지리 산 56,33.3380794,126.2436897
마원,제주특별자치도 제주시 조천읍 선흘남4길 264-17,제주특별자치도 제주시 조천읍 선흘리 2107-2,33.4907028,126.7002355
마흐니 숲길,제주특별자치도 서귀포시 남원읍 남조로 973,제주특별자치도 서귀포시 남원읍 수망리 산182-4,33.3590893,126.6920491
막숙,제주특별자치도 서귀포시 막숙포로37번길 2,제주특별자치도 서귀포시 법환동 287-3,33.2378657,126.5157300
만벵듸 공동장지,제주특별자치도 제주시 한림읍 갯거리오름길 114,제주특별자치도 제주시 한림읍 금악리 2754,33.3721358,126.2955423
만장굴,제주특별자치도 제주시 구좌읍 만장굴길 182,제주특별자치도 제주시 구좌읍 월정리 산41-15,33.5283774,126.7716157
맛있는 철학자(태반의땅제주),제주특별자치도 서귀포시 토평로50번길 31,제주특별자치도 서귀포시 토평동 1276-1,33.2675456,126.5903056
망장포,제주특별자치도 서귀포시 남원읍 하례망장포로 65-13,제주특별자치도 서귀포시 남원읍 하례리 64-10,33.2592530,126.6394300
매오름,제주특별자치도 서귀포시 표선면 표선리 산 2,제주특별자치도 서귀포시 표선면 표선리 산 2,33.3184652,126.8138661
맬튼개 갯담,제주특별자치도 제주시 구좌읍 구좌로 142,제주특별자치도 제주시 구좌읍 하도리 3314-2,33.5207598,126.8655929
머체왓숲길,제주특별자치도 서귀포시 남원읍 서성로 755,제주특별자치도 서귀포시 남원읍 한남리 1622-3,33.3305334,126.6739023
멍더랜드,제주특별자치도 제주시 월광로 147,제주특별자치도 제주시 노형동 2734,33.4921406,126.4734230
멍멍플레이스,제주특별자치도 제주시 애월읍 소길남길 244-5,제주특별자치도 제주시 애월읍 소길리 952-2,33.4162744,126.3794602
메이즈랜드,제주특별자치도 제주시 구좌읍 비자림로 2134-47,제주특별자치도 제주시 구좌읍 평대리 3322,33.4879942,126.8010121
명월성지,제주특별자치도 제주시 한림읍 명월리 2236,제주특별자치도 제주시 한림읍 명월리 2236,33.4007426,126.2603844
명월팽나무군락,제주특별자치도 제주시 한림읍 명월로 71,제주특별자치도 제주시 한림읍 명월리 1767-1,33.3869975,126.2666390
모구리오름,제주특별자치도 서귀포시 성산읍 서성일로 260,제주특별자치도 서귀포시 성산읍 난산리 2971,33.4058833,126.8207139
모라이,제주특별자치도 서귀포시 산록남로 (색달동),제주특별자치도 서귀포시 색달동,,
모비딕다이브,제주특별자치도 서귀포시 남성중로121번길 12,제주특별자치도 서귀포시 서홍동 743-5,33.2427639,126.5555034
모슬봉 (모슬개오름),제주특별자치도 서귀포시 대정읍 상모리 3540-2,제주특별자치도 서귀포시 대정읍 상모리 3540-2,33.2387372,126.2586420
모슬포항,제주특별자치도 서귀포시 대정읍 신영로36번길 48,제주특별자치도 서귀포시 대정읍 하모리 1089-35,33.2190467,126.2484078
모지오름,제주특별자치도 서귀포시 표선면 성읍리 산 22,제주특별자치도 서귀포시 표선면 성읍리 산 22,33.3964343,126.7717147
모진이몽돌해변,제주특별자치도 제주시 추자면 신양리 56,제주특별자치도 제주시 추자면 신양리 56,33.9461028,126.3339049
목시물굴,제주특별자치도 제주시 조천읍 선흘리 산26번지 일대,제주특별자치도 제주시 조천읍 선흘리 산26번지 일대,33.5106220,126.7207960
목장카페 드르쿰다,제주특별자치도 서귀포시 표선면 번영로 2454,제주특별자치도 서귀포시 표선면 성읍리 2873,33.4083884,126.7706674
목장카페 밭디,제주특별자치도 서귀포시 표선면 번영로 2486,제주특별자치도 서귀포시 표선면 성읍리 2867,33.4079000,126.7722163
묘산봉 (괴살메),제주특별자치도 제주시 구좌읍 김녕리 2723,제주특별자치도 제주시 구좌읍 김녕리 2723,33.5429267,126.7446354
무등이왓터,제주특별자치도 서귀포시 안덕면 신화역사로586번길 21-7,제주특별자치도 서귀포시 안덕면 동광리 233-1,33.3094217,126.3520837
무릉곶자왈,제주특별자치도 서귀포시 대정읍 무릉리 산 1,제주특별자치도 서귀포시 대정읍 연명로 244-35,33.2915458,126.2625308
무릉도원마을,제주특별자치도 서귀포시 대정읍 중산간서로 2868,제주특별자치도 서귀포시 대정읍 무릉리 630-4,33.2748435,126.2352671
무릉자전거도로(환상자전거길 3구간),제주특별자치도 제주시 구좌읍 구좌해안로 237,제주특별자치도 제주시 구좌읍 김녕리 4330,33.5572044,126.7365351
무민랜드,제주특별자치도 서귀포시 안덕면 병악로 420,제주특별자치도 서귀포시 안덕면 상천리 470-6,33.3065128,126.3817897
무비랜드왁스뮤지엄,제주특별자치도 서귀포시 중문관광로 205,제주특별자치도 서귀포시 중문동 2565,33.2438864,126.4216624
무수천,제주특별자치도 제주시 애월읍 무수천길,제주특별자치도 제주시 애월읍 무수천길,,
묵리마을,제주특별자치도 제주시 추자면 묵리,제주특별자치도 제주시 추자면 묵리,33.947358,126.316609
묵리처녀당,제주특별자치도 제주시 추자면 묵리 229-1,제주특별자치도 제주시 추자면 묵리 229-1,33.9431851,126.3141755
묵리해안쉼터,제주특별자치도 제주시 추자면 추자로 376-6,제주특별자치도 제주시 추자면 묵리 731-4,33.9449603,126.3120427
묵리해안포구,제주특별자치도 제주시 추자면 추자로 365-1,제주특별자치도 제주시 추자면 묵리 701-5,33.9456872,126.3129352
문도지오름 (문돗지),제주특별자치도 제주시 한림읍 금악리 3444,제주특별자치도 제주시 한림읍 금악리 3444,33.3268282,126.2944636
문서프,제주특별자치도 제주시 애월읍 곽지7길 1,제주특별자치도 제주시 애월읍 곽지리 1635,33.4500563,126.3084004
문석이오름 [출입제한 - 자연휴식년제 적용 중],제주특별자치도 제주시 구좌읍 송당리,제주특별자치도 제주시 구좌읍 송당리,33.447293,126.744525
문섬(서귀포해양도립공원),제주특별자치도 서귀포시 칠십리로,제주특별자치도 서귀포시 서홍동 707,,
문화공간 양,제주특별자치도 제주시 거로남6길 13,제주특별자치도 제주시 화북이동 3486-1,33.5092653,126.5617666
문화빳데리 충전소,제주특별자치도 서귀포시 중정로 76,제주특별자치도 서귀포시 서귀동 405-3,33.2479286,126.5644838
문화예술마을 저지리 농어촌체험마을,제주특별자치도 제주시 한경면 중산간서로 3675,제주특별자치도 제주시 한경면 저지리 1863-1,33.3326945,126.2558603
"물메(물미, 수산봉)",제주특별자치도 제주시 애월읍 수산리 산 1-1,제주특별자치도 제주시 애월읍 수산리 산 1-1,33.4738089,126.3828222
물뫼힐링팜,제주특별자치도 제주시 애월읍 예원로 51,제주특별자치도 제주시 애월읍 수산리 357-1,33.4642368,126.3965566
물영아리오름,제주특별자치도 서귀포시 남원읍 남조로 988-11,제주특별자치도 서귀포시 남원읍 수망리 산182-2,33.3612712,126.6929622
물찻오름 [출입제한 - 자연휴식년제 적용 중],제주특별자치도 제주시 조천읍 교래길,제주특별자치도 제주시 조천읍 교래길,,
"미악산 (턥오름, 쌀오름, 솔오름)",제주특별자치도 서귀포시 인정오름로 387-63,제주특별자치도 서귀포시 동홍동 산7-1,33.3005646,126.5542079
미요캔들,제주특별자치도 제주시 구남로4길 8-1,제주특별자치도 제주시 이도이동 2036-1,33.4890569,126.5340127
미천굴,제주특별자치도 서귀포시 성산읍 중산간동로 4150-30,제주특별자치도 서귀포시 성산읍 삼달리 1010,33.3832875,126.8415364
민속자연사박물관,제주특별자치도 제주시 삼성로 40,제주특별자치도 제주시 일도이동 996-1,33.5063920,126.5313380
민속해안로,제주특별자치도 서귀포시 표선면 일주동로 6228,제주특별자치도 서귀포시 표선면 세화리 281-1,33.3072495,126.8062270
민오름(구좌읍),제주특별자치도 제주시 구좌읍 비자림로 1456,제주특별자치도 제주시 구좌읍 송당리 2438,33.4447500,126.7591021
민오름(봉개동),제주특별자치도 제주시 칠오름길 (봉개동),제주특별자치도 제주시 칠오름길 (봉개동),,
민오름(오라동),제주특별자치도 제주시 오라2동 산 12,제주특별자치도 제주시 오라2동 산 12,33.4765134,126.5064301
민오름(조천읍),제주특별자치도 제주시 조천읍 선흘리 산 141,제주특별자치도 제주시 조천읍 선흘리 산 141,33.4478821,126.6917987
바구스서핑스쿨,제주특별자치도 제주시 테우해안로 143,제주특별자치도 제주시 이호일동 1788-6,33.4975070,126.4495833
바늘오름,제주특별자치도 제주시 조천읍 교래리 산 108,제주특별자치도 제주시 조천읍 교래리 산 108,33.4544904,126.6528120
바다다이브,제주특별자치도 서귀포시 동홍로12번길 5,제주특별자치도 서귀포시 서귀동 253-10,33.2498096,126.5684826
바람모루,제주특별자치도 서귀포시 서호동,제주특별자치도 서귀포시 서호동,33.28775,126.517488
바람불어좋은날 천연염색 공방,제주특별자치도 서귀포시 안덕면 사계로 68,제주특별자치도 서귀포시 안덕면 사계리 2982-1,33.2371215,126.2978841
바릇스파,제주특별자치도 제주시 한림읍 한림로 392 3층,제주특별자치도 제주시 한림읍 협재리 1607,33.3970461,126.2444043
바이나흐튼 크리스마스 박물관,제주특별자치도 서귀포시 안덕면 평화로 654,제주특별자치도 서귀포시 안덕면 서광리 456,33.2913123,126.3278107
박물관은 살아있다,제주특별자치도 서귀포시 중문관광로 42,제주특별자치도 서귀포시 색달동 2629,33.2548060,126.4089300
박성내,제주특별자치도 제주시 기자길 5,제주특별자치도 제주시 아라이동 1370-6,33.4848738,126.5438393
박수기정,제주특별자치도 서귀포시 안덕면 난드르로 90-25,제주특별자치도 서귀포시 안덕면 감산리 1010,33.2371552,126.3587422
반지마을 제주 1호점,제주특별자치도 제주시 월성로4길 17 3,제주특별자치도 제주시 용담이동 2761-1,33.5016782,126.5035779
발이오름,제주특별자치도 제주시 애월읍 어음리 산 1,제주특별자치도 제주시 애월읍 어음리 산 1,33.3930042,126.3752595
발자국화석공원,제주특별자치도 서귀포시 대정읍 형제해안로 192,제주특별자치도 서귀포시 대정읍 상모리 626-1,33.2173564,126.2931377
밧돌오름,제주특별자치도 제주시 구좌읍 송당리 산 66-1,제주특별자치도 제주시 구좌읍 송당리 산 66-1,33.4609888,126.7617742
방림원,제주특별자치도 제주시 한경면 용금로 864,제주특별자치도 제주시 한경면 저지리 2120-91,33.3373026,126.2685273
방선문,제주특별자치도 제주시 종천길 39-1,제주특별자치도 제주시 오라이동 3322,33.4713430,126.5021716
방일리공원,제주특별자치도 제주시 정원로 50,제주특별자치도 제주시 노형동 3812-1,33.4792370,126.4771160
방주교회,제주특별자치도 서귀포시 안덕면 산록남로762번길 113,제주특별자치도 서귀포시 안덕면 상천리 427,33.3051190,126.3877847
배령연대,제주특별자치도 제주시 한림읍 금능리 1649,제주특별자치도 제주시 한림읍 금능리 1649,33.3879583,126.2237077
백년초농장박물관,제주특별자치도 서귀포시 태평로 200,제주특별자치도 서귀포시 호근동 310-3,33.2446745,126.5438916
백록담,제주특별자치도 서귀포시 토평동 산 15-1,제주특별자치도 서귀포시 토평동 산 15-1,33.3469130,126.5354225
백약이오름,제주특별자치도 서귀포시 표선면 성읍리 산 1,제주특별자치도 서귀포시 표선면 성읍리 산 1,33.4372159,126.7901630
백제사,제주시 애월읍 광령남6길 54 백제사,제주특별자치도 제주시 애월읍 광령리 4121,33.4489507,126.4242963
백제사 템플스테이,제주시 애월읍 광령남6길 54 백제사,제주특별자치도 제주시 애월읍 광령리 4121,33.4489507,126.4242963
백조일손지묘(백조일손지지),제주특별자치도 서귀포시 안덕면 사계리,제주특별자치도 서귀포시 안덕면 사계리,33.2095,126.3145
밸런싱 요가,제주특별자치도 제주시 중앙로 492,제주특별자치도 제주시 아라일동 2338-4,33.4792005,126.5433406
뱅듸승마클럽,제주특별자치도 제주시 조천읍 번영로 1118-33,제주특별자치도 제주시 조천읍 와흘리 산18,33.4666510,126.6534918
범서프,제주특별자치도 제주시 선사로8길 11,제주특별자치도 제주시 삼양일동 1569-25,33.5255281,126.5867504
범섬,제주특별자치도 서귀포시 법환동,제주특별자치도 서귀포시 법환동,33.242764,126.51065
법정사,제주특별자치도 서귀포시 1100로 740-168,제주특별자치도 서귀포시 도순동 산1,33.3098908,126.4743592
법화사,제주특별자치도 서귀포시 하원북로 35번길 15-28,제주특별자치도 서귀포시 하원동 1071-1,33.2653046,126.4575824
법화사지,제주특별자치도 서귀포시 하원북로35번길 15-28,제주특별자치도 서귀포시 하원동 1071-1,33.2653046,126.4575824
법환포구,제주특별자치도 서귀포시 막숙포로37번길 2,제주특별자치도 서귀포시 법환동 287-3,33.2378657,126.5157300
베릿네오름,제주특별자치도 서귀포시 중문상로17번길 51,제주특별자치도 서귀포시 중문동 2273,33.2489613,126.4190964
벨리타,제주특별자치도 제주시 조천읍 중산간동로 1194,제주특별자치도 제주시 조천읍 선흘리 2861-4,33.5080387,126.6978029
별내린전망대,제주특별자치도 서귀포시 색달동 2938-1,제주특별자치도 서귀포시 색달동 2938-1,33.2474909,126.4168140
별도봉,제주특별자치도 제주시 선반로 (화북일동),제주 제주시 화북일동 4472,,
별도연대,제주특별자치도 제주시 화북1동 1537,제주특별자치도 제주시 화북1동 1537,33.5262196,126.5680359
별도포구,제주특별자치도 제주시 화북1동 4269-12,제주특별자치도 제주시 화북1동 4269-12,33.5250000,126.5649107
별방진,제주특별자치도 제주시 구좌읍 하도리 3354,제주특별자치도 제주시 구좌읍 하도리 3354,33.5261673,126.8843610
병악현무암지대,제주특별자치도 서귀포시 안덕면 사계리,제주특별자치도 서귀포시 안덕면 사계리,33.2095,126.3145
보롬왓,제주특별자치도 서귀포시 표선면 번영로 2350-104,제주특별자치도 서귀포시 표선면 성읍리 3229-4,33.4134956,126.7524948
"보롬이(하논, 화구구)",제주특별자치도 서귀포시 하논로 (서홍동),제주 서귀포시 서홍동,,
보목포구,제주특별자치도 서귀포시 보목포로 46,제주특별자치도 서귀포시 보목동 566-3,33.2391906,126.6068197
보물섬하이킹,제주특별자치도 제주시 용문로14길 14,제주특별자치도 제주시 용담이동 2706-1,33.5060174,126.5102068
보통청춘기록실 청춘사진관,제주특별자치도 제주시 한림읍 귀덕11길 1,제주특별자치도 제주시 한림읍 귀덕리 1010-2,33.4439163,126.2935952
본초족욕,제주특별자치도 제주시 은수길 65,제주특별자치도 제주시 연동 1326,33.4716110,126.4877417
본태박물관,제주특별자치도 서귀포시 안덕면 산록남로762번길 69,제주특별자치도 서귀포시 안덕면 상천리 380,33.3038491,126.3921862
볼레낭길,제주특별자치도 서귀포시 안덕면 감산리 1049,제주특별자치도 서귀포시 안덕면 감산리 1049,33.2359162,126.3493751
봉구의간식,제주특별자치도 제주시 애월읍 애월로 110,제주특별자치도 제주시 애월읍 애월리 1576-1,33.4645215,126.3191042
봉글레산,제주특별자치도 제주시 추자면 대서5길 1,제주특별자치도 제주시 추자면 대서리 167,33.9617937,126.2937669
봉쥬르봉봉,제주특별자치도 제주시 한림읍 한림로 408-2,제주특별자치도 제주시 한림읍 협재리 1587,33.3978517,126.2455251
부대악오름,제주특별자치도 제주시 조천읍 선흘리 산 103,제주특별자치도 제주시 조천읍 선흘리 산 103,33.4473974,126.7094860
부영컨트리클럽,제주특별자치도 서귀포시 남원읍 남조로 960 부영CC,제주특별자치도 서귀포시 남원읍 수망리 628-8,33.3592183,126.7124642
북오름,제주특별자치도 서귀포시 안덕면 동광리 산 94,제주특별자치도 서귀포시 안덕면 동광리 산 94,33.3026811,126.3319998
북촌국민학교,제주특별자치도 제주시 조천읍 일주동로 1481,제주특별자치도 제주시 조천읍 북촌리 1212,33.5480083,126.6917211
북촌돌하르방미술관,제주특별자치도 제주시 조천읍 북촌서1길 70,제주특별자치도 제주시 조천읍 북촌리 976,33.5388536,126.6888142
북촌리 4.3길,제주특별자치도 제주시 조천읍 북촌3길 3,제주특별자치도 제주시 조천읍 북촌리 1599,33.5460288,126.6886490
북촌포구,제주특별자치도 제주시 조천읍 북촌9길 26-1,제주특별자치도 제주시 조천읍 북촌리 588,33.5500651,126.6940862
북촌환해장성,제주특별자치도 제주시 조천읍 북촌리,제주특별자치도 제주시 조천읍 북촌리,33.545242,126.697463
불카분낭 (불타버린 나무),제주특별자치도 제주시 조천읍 선흘리 1136-2,제주특별자치도 제주시 조천읍 선흘리 1136-2,33.5127254,126.7063251
불탑사 (5층석탑),제주특별자치도 제주시 원당로16길 41,제주특별자치도 제주시 삼양일동 697,33.5290714,126.5983403
붉은오름 자연휴양림,제주특별자치도 서귀포시 표선면 남조로 1487-73,제주특별자치도 서귀포시 표선면 가시리 산158,33.4014447,126.6757628
붉은오름(성산읍),제주특별자치도 서귀포시 성산읍 섭지코지로 261,제주특별자치도 서귀포시 성산읍 고성리 57,33.4258209,126.9313668
붉은오름(표선면),제주특별자치도 서귀포시 표선면 남조로 1487-73,제주특별자치도 서귀포시 표선면 가시리 산158,33.4014447,126.6757628
뷰 제주하늘,제주특별자치도 서귀포시 성산읍 서성일로 397,제주특별자치도 서귀포시 성산읍 난산리 2815,33.4132240,126.8329620
브레이브독스,제주특별자치도 제주시 한림읍 한수풀로 138,제주특별자치도 제주시 한림읍 대림리 428-13,33.4216292,126.2766106
브리더스파크,제주특별자치도 제주시 구좌읍 금백조로 902-102,제주특별자치도 제주시 구좌읍 송당리 2463,33.4340778,126.7774154
브릭캠퍼스,제주특별자치도 제주시 1100로 3047,제주특별자치도 제주시 노형동 244-1,33.4585618,126.4853074
블루버블,제주특별자치도 서귀포시 성산읍 일출로255번길 11,제주특별자치도 서귀포시 성산읍 성산리 175-3,33.4622831,126.9331224
비고르서프,제주특별자치도 서귀포시 안덕면 형제해안로 70,제주특별자치도 서귀포시 안덕면 사계리 2294-20,33.2258392,126.2998174
비블리아성서식물원,제주특별자치도 제주시 한림읍 조성로 17,제주특별자치도 제주시 한림읍 상명리 1191-5,33.3561963,126.2749933
비양도,제주특별자치도 제주시 한림읍 협재리,제주특별자치도 제주시 한림읍 협재리,33.3822,126.2498
비양도 연평리 야영지,제주특별자치도 제주시 우도면 연평리 3,제주특별자치도 제주시 우도면 연평리 3,33.5153728,126.9684364
비양도등대,제주특별자치도 제주시 한림읍 비양도길 84비양도,제주특별자치도 제주시 한림읍 협재리 2932-2,33.4059351,126.2228841
비양도의 비양나무자생지,제주특별자치도 제주시 한림읍 협재리 산 89,제주특별자치도 제주시 한림읍 협재리 산 89,33.4086702,126.2258658
비자림,제주특별자치도 제주시 구좌읍 비자숲길 55,제주특별자치도 제주시 구좌읍 평대리 3161-1,33.4910986,126.8114581
비자림농원,제주특별자치도 제주시 조천읍 선흘동1길 31-71,제주특별자치도 제주시 조천읍 선흘리 2740,33.5153896,126.6965185
비체올린,제주특별자치도 제주시 한경면 판조로 253-6,제주특별자치도 제주시 한경면 판포리 725-1,33.3494278,126.2182291
비치미오름,제주특별자치도 제주시 구좌읍 송당리 산 255-1,제주특별자치도 제주시 구좌읍 송당리 산 255-1,33.4286726,126.7664584
빌레못동굴,제주특별자치도 제주시 애월읍 어음리 1391,제주특별자치도 제주시 애월읍 어음리 1391,33.4043218,126.3497043
빛의 벙커,제주특별자치도 서귀포시 성산읍 고성리  2039-22,제주특별자치도 서귀포시 성산읍 고성리  2039-22,33.4396070,126.8998358
빠우사,제주특별자치도 제주시 조천읍 선교로 539,제주특별자치도 제주시 조천읍 선흘리 472-5,33.4577401,126.7119091
뽀로로&타요 테마파크 제주,제주특별자치도 서귀포시 안덕면 병악로 269,제주특별자치도 서귀포시 안덕면 상창리 79,33.3004603,126.3708042
쁘램 요가,제주특별자치도 제주시 연북로 88,제주특별자치도 제주시 연동 1372-3,33.4815156,126.4906280
삐삐그루밍,제주특별자치도 서귀포시 대정읍 중산간서로 2269,제주특별자치도 서귀포시 대정읍 구억리 835-1,33.2806352,126.2860625
사계 용머리해안 (해산물),제주특별자치도 서귀포시 안덕면 사계남로216번길 28,제주특별자치도 서귀포시 안덕면 사계리 118-3,33.2337928,126.3108416
사계항,제주특별자치도 서귀포시 안덕면 사계리,제주특별자치도 서귀포시 안덕면 사계리,33.2095,126.3145
사계해변,제주특별자치도 서귀포시 안덕면 사계리 2147-35,제주특별자치도 서귀포시 안덕면 사계리 2147-35,33.2281569,126.3083305
사계해안도로,제주특별자치도 서귀포시 안덕면 사계리,제주특별자치도 서귀포시 안덕면 사계리,33.2095,126.3145
사라봉,제주특별자치도 제주시 사라봉동길 61,제주특별자치도 제주시 건입동 388,33.5175968,126.5461398
사라봉공원,제주특별자치도 제주시 사라봉동길 74 (건입동),제주특별자치도 제주시 건입동 387-1,33.5186634,126.5476899
사라오름,제주특별자치도 서귀포시 남원읍 신례리 산 2-1,제주특별자치도 서귀포시 남원읍 신례리 산 2-1,33.3642265,126.6050291
사려니숲길,제주특별자치도 제주시 조천읍 교래리 산 137-1,제주특별자치도 제주시 조천읍 교래리 산 137-1,33.4077504,126.6424787
사려니오름,제주특별자치도 서귀포시 남원읍 516로 1648-87,제주특별자치도 서귀포시 남원읍 한남리 산2-1,33.3688512,126.6339831
사슴공방,제주특별자치도 제주시 구좌읍 구좌로 51 3층,제주특별자치도 제주시 구좌읍 세화리 1465-15,33.5232262,126.8570013
사진놀이터,제주특별자치도 제주시 애월읍 평화로 2835,제주특별자치도 제주시 애월읍 광령리 100-3,33.4565873,126.4414265
삭제요청 2,제주특별자치도 서귀포시 대정읍 중산간서로 2260-15,제주특별자치도 서귀포시 대정읍 구억리 654-1,33.2825442,126.2873438
삭제요청 3,제주특별자치도 제주시 애월읍 어음13길 196,제주특별자치도 제주시 애월읍 어음리 49,33.3954627,126.3608172
산굼부리,제주특별자치도 제주시 조천읍 비자림로 768,제주특별자치도 제주시 조천읍 교래리 342-2,33.4342180,126.6887630
산도스카발리오홀스파크,제주특별자치도 서귀포시 안덕면 산록남로 566,제주특별자치도 서귀포시 안덕면 광평리 268,33.3335198,126.3700302
산방굴사,제주특별자치도 서귀포시 안덕면 사계리 산 16,제주특별자치도 서귀포시 안덕면 사계리 산 16,33.2423871,126.3139465
산방산,제주특별자치도 서귀포시 안덕면 사계리 산 16,제주특별자치도 서귀포시 안덕면 사계리 산 16,33.2423871,126.3139465
산방산 랜드,제주특별자치도 서귀포시 안덕면 사계남로216번길 24-32,제주특별자치도 서귀포시 안덕면 사계리 116-6,33.2333682,126.3132933
산방산 수국,제주특별자치도 서귀포시 안덕면 산방로,제주특별자치도 서귀포시 안덕면 사계리 산 16,,
산방산 용머리해안 지질트레일,제주특별자치도 서귀포시 안덕면 사계북로41번길 192,제주특별자치도 서귀포시 안덕면 사계리 981,33.2490188,126.2988035
산방산둘레길,제주 서귀포시 안덕면 감산리,제주 서귀포시 안덕면 감산리,33.2493,126.3511
산방산탄산온천,제주특별자치도 서귀포시 안덕면 사계북로 41번길 192,제주특별자치도 서귀포시 안덕면 사계리 981,33.2490188,126.2988035
산양곶자왈,제주특별자치도제주시 한경면 청수리 956-6,명제주특별자치도 제주시 한경면 연명로 179,33.2909370,126.2506774
산지등대,제주특별자치도 제주시 사라봉동길 108-1 (건입동),제주특별자치도 제주시 건입동 340-2,33.5213877,126.5457939
산지천,제주특별자치도 제주시 건입동,제주특별자치도 제주시 건입동,33.515029,126.531543
산지천갤러리,제주특별자치도 제주시 중앙로3길 36,제주특별자치도 제주시 일도일동 1247,33.5151433,126.5283238
산지항 옛터,제주특별자치도 제주시 연무정길 28 (건입동)일대,제주특별자치도 제주시 건입동 940-3,33.5166672,126.5355253
산천단,제주특별자치도 제주시 아라1동 392-3,명제주특별자치도 제주시 516로 3041-29,33.4478030,126.5529468
산천단곰솔,제주특별자치도 제주시 516로 3041-24,제주특별자치도 제주시 아라일동 375-1,33.4476478,126.5546965
산호레저,제주특별자치도 제주시 우도면 우도해안길 73,제주특별자치도 제주시 우도면 연평리 1737-14,33.4930279,126.9510099
삼각봉,제주특별자치도 제주시 1100로 2070-61,제주특별자치도 제주시 해안동 산220-13,33.3926876,126.4948419
삼다수목장,제주특별자치도 제주시 조천읍 비자림로 485-15,제주특별자치도 제주시 조천읍 교래리 산119-1,33.4298273,126.6587312
삼다수숲길 지질트레일,제주특별자치도 제주시 조천읍 교래3길 98,제주특별자치도 제주시 조천읍 교래리 606-1,33.4317013,126.6746250
삼매봉,제주특별자치도 서귀포시 남성로115번길 83,제주특별자치도 서귀포시 서홍동 819,33.2438741,126.5463538
삼밭구석 & 동광리4·3희생자위령비,제주특별자치도 서귀포시 안덕면 동광리 1425 일대,제주특별자치도 서귀포시 안덕면 동광리 1425 일대,33.3112550,126.3303665
삼사석,제주특별자치도 제주시 화북1동 1380-1,제주특별자치도 제주시 화북1동 1380-1,33.5210499,126.5739829
삼성혈,제주특별자치도 제주시 삼성로 22,제주특별자치도 제주시 이도일동 1313,33.5042895,126.5291615
삼양 셋다리물,제주특별자치도 제주시 삼양1동 1938-9,제주특별자치도 제주시 삼양1동 1938-9,33.5289363,126.5891514
삼양방파제,제주특별자치도 제주시 벌랑길,제주특별자치도 제주시 벌랑길,,
삼양해수욕장,제주특별자치도 제주시 삼양동,제주특별자치도 제주시 삼양동,33.521802,126.585464
삼양해안도로,제주특별자치도 제주시 삼양2동,제주특별자치도 제주시 삼양2동,33.5213,126.584725
삼의악트레킹코스,제주특별자치도 제주시 아라동 산 24-2,제주특별자치도 제주시 아라동 산 24-2,33.4395097,126.5618996
삼화포구,제주특별자치도 제주시 서흘1길 26,제주특별자치도 제주시 삼양일동 1775,33.5287323,126.5891148
상추자마을길,제주특별자치도 제주시 추자도 추자면,제주특별자치도 제주시 추자도 추자면,,
상추자포구,제주특별자치도 제주시 추자면 대서리,제주특별자치도 제주시 추자면 대서리,34.00952,126.340034
상추자항,제주특별자치도 제주시 추자면 추자로 39,제주특별자치도 제주시 추자면 대서리 147-5,33.9624114,126.2953182
상효원,제주특별자치도 서귀포시 산록남로 2847-37,제주특별자치도 서귀포시 상효동 산25,33.3072168,126.5860085
새별오름,제주특별자치도 제주시 애월읍 봉성리 산 59-8,제주특별자치도 제주시 애월읍 봉성리 산 59-8,33.3673209,126.3570070
새별헤이요목장,제주도 제주시 애월읍 봉성리 4554-20,제주도 제주시 애월읍 봉성리 4554-20,33.3622195,126.3630096
새섬,제주특별자치도 서귀포시 남성중로 40,제주특별자치도 서귀포시 서홍동 707-5,33.2392101,126.5584133
새시물,제주특별자치도 제주시 한림읍 상한로,제주특별자치도 제주시 한림읍 상명리,,
새연교,제주특별자치도 서귀포시 서홍동 707-4,제주특별자치도 서귀포시 서홍동 707-4,33.2385071,126.5588566
샘이오름,제주특별자치도 제주시 조천읍 516로,제주 제주시 구좌읍 송당리 산145,,
생각하는정원,제주특별자치도 제주시 한경면 녹차분재로 675,제주특별자치도 제주시 한경면 저지리 1534,33.3253181,126.2548493
생이기정,제주특별자치도 제주시 한경면 용수리 산 60,제주특별자치도 제주시 한경면 용수리 산 60,33.3156157,126.1672722
샤이니숲길,제주특별자치도 제주시 조천읍 교래리 719-10,제주특별자치도 제주시 조천읍 교래리 719-10,33.4272799,126.6617098
서건도,제주특별자치도 서귀포시 강정동 산 1,제주특별자치도 서귀포시 강정동 산 1,33.2300511,126.4984720
서광리 곶자왈생태탐방로,제주특별자치도 서귀포시 안덕면 서광리 산6-1,제주특별자치도 서귀포시 안덕면 서광리 산6-1,33.2851325,126.3379577
서광승마장,제주특별자치도 서귀포시 안덕면 녹차분재로 239,제주특별자치도 서귀포시 안덕면 서광리 산50-33,33.3024627,126.2908530
서귀다원,제주특별자치도 서귀포시 상효동 산 118,제주특별자치도 서귀포시 상효동 산 118,33.3128258,126.5964482
서귀본향당,제주특별자치도 서귀포시 이중섭로 23-11,제주특별자치도 서귀포시 서귀동 534-2,33.2463193,126.5647247
서귀포 궁도장(천지정),제주특별자치도 서귀포시 중산간서로 97-40,제주특별자치도 서귀포시 강정동 1475,33.2592282,126.4979741
서귀포 다이브센터,제주특별자치도 서귀포시 남원읍 하례망장포로 65-13 2층,제주특별자치도 서귀포시 남원읍 하례리 64-10,33.2592530,126.6394300
서귀포 하영올레,제주특별자치도 서귀포시 중앙로 105,제주특별자치도 서귀포시 서홍동 440-1,33.2539250,126.5597875
서귀포농업기술센터 제주농업생태원,제주특별자치도 서귀포시 남원읍 중산간동로 7413,제주특별자치도 서귀포시 남원읍 하례리 1558,33.2883077,126.6072409
서귀포시립기당미술관,제주특별자치도 서귀포시 남성중로153번길 15,제주특별자치도 서귀포시 서홍동 621,33.2448480,126.5511787
서귀포예술의전당,제주특별자치도 서귀포시 태평로 270,제주특별자치도 서귀포시 서홍동 551-1,33.2463334,126.5507911
서귀포의료원,제주특별자치도 서귀포시 장수로 47,제주특별자치도 서귀포시 동홍동 1530-2,33.2555355,126.5639216
서귀포자연휴양림,제주특별자치도 서귀포시 1100로 882,제주특별자치도 서귀포시 대포동 산1-8,33.3115019,126.4587547
서귀포잠수함(대국해저관광),"제주특별자치도 서귀포시 남성중로 40 (서홍동, 유람선매표소) 서귀포잠수함",제주특별자치도 서귀포시 서홍동 707-5,33.2392101,126.5584133
서귀포천문과학문화관,제주특별자치도 서귀포시 1100로 506-1,제주특별자치도 서귀포시 하원동 산70,33.2888369,126.4603839
서귀포층패류화석산지,제주특별자치도 서귀포시 남성중로 43,제주특별자치도 서귀포시 서홍동 707,33.2398076,126.5582549
서귀포치유의숲,제주특별자치도 서귀포시 산록남로 2271,제주특별자치도 서귀포시 호근동 산1,33.2919389,126.5279517
서귀포칠십리시공원,제주특별자치도 서귀포시 서홍동 576-9,제주특별자치도 서귀포시 서홍동 576-9,33.2460454,126.5535495
서귀포항,제주특별자치도 서귀포시 칠십리로72번길 14,제주특별자치도 서귀포시 서귀동 758-4,33.2391323,126.5648611
서귀포해안,제주특별자치도 서귀포시 서호동,제주특별자치도 서귀포시 서호동,33.28775,126.517488
서복전시관,제주특별자치도 서귀포시 칠십리로 156-8,제주특별자치도 서귀포시 서귀동 100-2,33.2448090,126.5706574
서부두명품횟집거리,제주특별자치도 제주시 서부두길 16,제주특별자치도 제주시 건입동 1319-31,33.5176714,126.5283380
서영아리오름 / 용와이오름,제주특별자치도 서귀포시 안덕면 상천리 산22,제주특별자치도 서귀포시 안덕면 상천리 산22,33.3270625,126.4007801
서우봉,제주특별자치도 제주시 조천읍 함덕리 169-1,제주특별자치도 제주시 조천읍 함덕리 169-1,33.5453710,126.6775191
서중천탐방로,제주특별자치도 서귀포시 남원읍 서성로 755,제주특별자치도 서귀포시 남원읍 한남리 1622-3,33.3305334,126.6739023
서프라이즈테마파크,제주특별자치도 제주시 조천읍 남조로 2243,제주특별자치도 제주시 조천읍 와흘리 2988,33.4651914,126.6596074
서프론트,제주특별자치도 제주시 애월읍 곽지5길 21,제주특별자치도 제주시 애월읍 곽지리 1613,33.4491313,126.3056587
서프앤조이,제주특별자치도 제주시 선사로8길 12,제주특별자치도 제주시 삼양일동 1657-3,33.5254306,126.5870803
선녀와나무꾼,제주특별자치도 제주시 조천읍 선교로 267,제주특별자치도 제주시 조천읍 선흘리 1997,33.4796076,126.7026774
선운정사,제주특별자치도 제주시 애월읍 구몰동길 65,제주특별자치도 제주시 애월읍 봉성리 3608,33.4293581,126.3071485
선족이오름(알선족이),제주특별자치도 제주시 구좌읍 송당리 산 140-2,제주특별자치도 제주시 구좌읍 송당리 산 140-2,33.4422255,126.7484968
선흘1리,제주특별자치도 제주시 조천읍 중산간동로 1280,제주특별자치도 제주시 조천읍 선흘리 1207-2,33.5113707,126.7051069
설쿰바당,제주특별자치도 서귀포시 안덕면 사계리,제주특별자치도 서귀포시 안덕면 사계리,33.2095,126.3145
섬생이,제주특별자치도 제주시 추자면 신양리 산 87,제주특별자치도 제주시 추자면 신양리 산 87,33.9399487,126.3112481
섬속의섬우도렌트,제주특별자치도 제주시 우도면 우도해안길 84-2,제주특별자치도 제주시 우도면 연평리 1749,33.4938313,126.9509746
섭지코지,제주 서귀포시 성산읍 고성리,제주 서귀포시 성산읍 고성리,33.439184,126.909092
섯알오름,제주특별자치도 서귀포시 대정읍 상모리 1618,제주특별자치도 서귀포시 대정읍 상모리 1618,33.2041752,126.2815264
성김대건신부표착기념관,제주특별자치도 제주시 한경면 용수1길 108,제주특별자치도 제주시 한경면 용수리 4266,33.3228594,126.1677346
성널오름 (성판악),제주특별자치도 서귀포시 남원읍 신례리,제주특별자치도 서귀포시 남원읍 신례리,33.339574,126.617913
성불오름,제주 제주시 구좌읍 중산간동로 2532,제주특별자치도 제주시 구좌읍 송당리 산226,33.4594303,126.8086741
성산 유채꽃재배단지,제주특별자치도 서귀포시 성산읍 일출로,제주 서귀포시 성산읍 고성리 270,,
성산~세화 해안도로,제주특별자치도 서귀포시 성산읍 해맞이해안로 2636,제주특별자치도 서귀포시 성산읍 시흥리 3,33.4760946,126.9099920
성산오조리해안,제주특별자치도 거쉬포시 성산읍 한도로,제주특별자치도 서귀포시 성산읍 오조리 10,,
성산일출봉(UNESCO 세계자연유산),제주특별자치도 서귀포시 성산읍 일출로 284-12,제주특별자치도 서귀포시 성산읍 성산리 114,33.4621574,126.9363164
성산초등학교 서청특별중대 주둔지,제주특별자치도 서귀포시 성산면 성산리 171-9,제주특별자치도 서귀포시 성산면 성산리 171-9,,
성산포항,서귀포시 성산읍 성산등용로 130-21,제주특별자치도 서귀포시 성산읍 성산리 347-9,33.4729280,126.9345062
성산항,제주특별자치도 서귀포시 성산읍 성산등용로 129-21,제주특별자치도 서귀포시 성산읍 성산리 347-9,33.4725181,126.9299079
성읍녹차마을,제주특별자치도 서귀포시 표선면 중산간동로 4778,제주특별자치도 서귀포시 표선면 성읍리 2197-1,33.3810789,126.7899735
성읍랜드,제주특별자치도 서귀포시 표선면 번영로 2650,제주특별자치도 서귀포시 표선면 성읍리 2045-1,33.3985453,126.7871191
성읍목장,제주특별자치도 서귀포시 표선면 성읍리 1734,제주특별자치도 서귀포시 표선면 성읍리 1734,33.4042923,126.7918335
성읍민속마을,제주특별자치도 서귀포시 표선면 성읍정의현로 19,제주특별자치도 서귀포시 표선면 성읍리 775-1,33.3845107,126.8003768
성읍승마장,제주특별자치도 서귀포시 표선면 번영로 2650,제주특별자치도 서귀포시 표선면 성읍리 2045-1,33.3985453,126.7871191
성이시돌목장,제주특별자치도 제주시 한림읍 산록남로 53,제주특별자치도 제주시 한림읍 금악리 116,33.3459489,126.3219664
성클라라수도원 금악성당,제주시 한림읍 금악북로 320,제주특별자치도 제주시 한림읍 금악리 373,33.3486767,126.3194551
섶섬(서귀포해양도립공원),제주특별자치도 서귀포시 마소물로,제주특별자치도 서귀포시 서홍동 707,,
세계술박물관,제주특별자치도 서귀포시 표선면 한마음초등로 431,제주특별자치도 서귀포시 표선면 하천리 1814-1,33.3540054,126.8176175
세계자동차 & 피아노박물관,제주특별자치도 서귀포시 안덕면 중산간서로 1610,제주특별자치도 서귀포시 안덕면 상창리 2065-4,33.2834505,126.3498913
세계조가비박물관,제주특별자치도 서귀포시 태평로 284,제주특별자치도 서귀포시 서홍동 557-1,33.2474460,126.5516026
세리월드 테마파크,제주특별자치도 서귀포시 법환상로2번길 97-13,제주특별자치도 서귀포시 법환동 877,33.2473504,126.5126514
세미오름(삼의양오름),제주특별자치도 제주시 아라동 산 24-2,제주특별자치도 제주시 아라동 산 24-2,33.4395097,126.5618996
세미오름(샘이오름),제주특별자치도 제주시 조천읍 대흘리 산 27-8,제주특별자치도 제주시 조천읍 대흘리 산 27-8,33.4738593,126.6697497
세인트포골프장,제주특별자치도 제주시 구좌읍 선유로 445-55,제주특별자치도 제주시 구좌읍 김녕리 5160-2,33.5205406,126.7385944
세화소품관,제주특별자치도 제주시 구좌읍 해맞이해안로 1422-3,제주특별자치도 제주시 구좌읍 세화리 1500-6,33.5255905,126.8576409
세화항,제주특별자치도 제주시 구좌읍 세화리,제주특별자치도 제주시 구좌읍 세화리,33.487187,126.832294
세화해변,제주특별자치도 제주시 구좌읍 해녀박물관길 27,제주특별자치도 제주시 구좌읍 세화리 1-1,33.5233817,126.8622588
세화해안도로,제주특별자치도 제주시 구좌읍 구좌로,제주특별자치도 제주시 구좌읍 평대리,,
소남머리,제주특별자치도 서귀포시 칠십리로 145,제주특별자치도 서귀포시 서귀동 70,33.2443818,126.5689264
소라의성,제주특별자치도 서귀포시 칠십리로214번길 17-17,제주특별자치도 서귀포시 동홍동 234-8,33.2451792,126.5769551
소병악 (족은오름),제주특별자치도 서귀포시 안덕면 상창리 산 2-1,제주특별자치도 서귀포시 안덕면 상창리 산 2-1,33.3069783,126.3698228
소수산봉(족은물뫼),제주특별자치도 서귀포시 성산읍 고성리 887,제주특별자치도 서귀포시 성산읍 고성리 887,33.4368945,126.9121781
소암현중화기념관,제주특별자치도 서귀포시 소암로 15,제주특별자치도 서귀포시 서귀동 157-1 소암현중화기념관,33.2451444,126.5675406
소인국테마파크,제주특별자치도 서귀포시 안덕면 중산간서로 1878,제주특별자치도 서귀포시 안덕면 서광리 725,33.2906924,126.3221690
소정방폭포,제주특별자치도 서귀포시 칠십리로214번길 17-17,제주특별자치도 서귀포시 동홍동 234-8,33.2451792,126.5769551
소천지,제주특별자치도 서귀포시 칠십리로485번길 2,제주특별자치도 서귀포시 보목동 1637-17,33.2417275,126.6026769
손방둥이,제주특별자치도 제주시 진군남2길 10-4 101호 손방둥이,제주특별자치도 제주시 노형동 1553,33.4758035,126.4777173
손지오름,제주특별자치도 제주시 구좌읍 종달리 산 52,제주특별자치도 제주시 구좌읍 종달리 산 52,33.4561144,126.8187802
솔담한방병원,제주특별자치도 제주시 1100로 3055,제주특별자치도 제주시 노형동 241-1,33.4590435,126.4845726
솔동산8경,제주특별자치도 서귀포시 서귀동 솔동산로,제주특별자치도 서귀포시 서귀동,,
송계순집터,제주특별자치도 서귀포시 대정읍 안성리 1681-1,제주특별자치도 서귀포시 대정읍 안성리 1681-1,33.2509980,126.2774945
송당리,제주특별자치도 제주시 구좌읍 중산간동로 2218-3,제주특별자치도 제주시 구좌읍 송당리 1366,33.4709967,126.7810794
송당본향당,제주특별자치도 제주시 구좌읍 송당리,제주특별자치도 제주시 구좌읍 송당리,33.447293,126.744525
송당승마장,제주특별자치도 제주시 구좌읍 번영로 2015,제주특별자치도 제주시 구좌읍 송당리 2573-2,33.4364490,126.7381789
송령이골,제주특별자치도 서귀포시 남원읍 한신로143번길 99,제주특별자치도 서귀포시 남원읍 의귀리 1975,33.3189478,126.7052681
송악산,제주특별자치도 서귀포시 대정읍 송악관광로 421-1,제주특별자치도 서귀포시 대정읍 상모리 131,33.2077573,126.2908794
송악산 진지동굴,제주특별자치도 서귀포시 대정읍 상모리,제주특별자치도 서귀포시 대정읍 상모리,33.224394,126.27476
송악산둘레길,제주특별자치도 서귀포시 대정읍 송악관광로 421-1,제주특별자치도 서귀포시 대정읍 상모리 131,33.2077573,126.2908794
송악카트체험장,제주특별자치도 서귀포시 대정읍 송악관광로 404,제주특별자치도 서귀포시 대정읍 상모리 139,33.2085286,126.2894018
송악힐링풋스킨,제주특별자치도 서귀포시 대정읍 송악관광로 399,제주특별자치도 서귀포시 대정읍 상모리 141,33.2089359,126.2892150
송죽사터,제주특별자치도 서귀포시 대정읍 안성리,제주특별자치도 서귀포시 대정읍 안성리,33.2626,126.2864
쇠소깍,제주특별자치도 서귀포시 쇠소깍로 128,제주특별자치도 서귀포시 하효동 995,33.2521457,126.6230070
쇠소깍제트,제주특별자치도 서귀포시 쇠소깍로 151-8 (하효동),제주특별자치도 서귀포시 하효동 999,33.2505587,126.6211783
쇠소깍해변,제주특별자치도 서귀포시 하효동,제주특별자치도 서귀포시 하효동,33.254292,126.6166
쇠와꽃 승마장,제주특별자치도 서귀포시 성산읍 섭지코지로25번길 88-17,제주특별자치도 서귀포시 성산읍 고성리 354-1,33.4472524,126.9199359
수목원테마공원(야시장길&LED공원),제주특별자치도 제주시 은수길 69,제주특별자치도 제주시 연동 1320,33.4706602,126.4879244
수목원테마파크,제주특별자치도 제주시 은수길 69 (연동),제주특별자치도 제주시 연동 1320,33.4706602,126.4879244
수산저수지,제주특별자치도 제주시 애월읍 수산리 1,제주특별자치도 제주시 애월읍 수산리 1,33.4590732,126.4013961
수악 (물오름),제주특별자치도 서귀포시 남원읍 516로 1042,제주특별자치도 서귀포시 남원읍 하례리 산10,33.3246212,126.6094830
수월봉,제주특별자치도 제주시 한경면 고산리 3760,제주특별자치도 제주시 한경면 고산리 3760,33.2947628,126.1634009
수월봉 지질트레일,제주특별자치도 제주시 한경면 노을해안로 1013-70,제주특별자치도 제주시 한경면 고산리 3762,33.2941940,126.1630099
수월이못,제주특별자치도 서귀포시 대정읍 안성리 1747,제주특별자치도 서귀포시 대정읍 안성리 1747,33.2583492,126.2784459
순례자의교회,제주특별자치도 제주시 한경면 일주서로 3960-24,제주특별자치도 제주시 한경면 용수리 2410,33.3198033,126.1805391
숨도(석부작박물관),제주특별자치도 서귀포시 일주동로 8941 (호근동),제주특별자치도 서귀포시 호근동 569-2,33.2502899,126.5360074
숫모르편백나무숲길,제주특별자치도 제주시 516로 2596,제주특별자치도 제주시 용강동 산14-1,33.4310909,126.6005344
쉬리의언덕,제주특별자치도 서귀포시 중문관광로72번길 114,제주특별자치도 서귀포시 색달동 3039-1,,
쉼터마을 유수암리 농어촌체험마을,제주특별자치도 제주시 애월읍 유수암평화길 14,제주특별자치도 제주시 애월읍 유수암리 1892-1,33.4414221,126.4030309
스누피가든,제주특별자치도 제주시 구좌읍 금백조로 930,제주특별자치도 제주시 구좌읍 송당리 2303-3,33.4441267,126.7783154
스위트몽키,제주특별자치도 제주시 한경면 산양6길 6-9,제주특별자치도 제주시 한경면 청수리 3306-8,33.2949046,126.2357877
스위트호텔 아로마,제주특별자치도 서귀포시 중문관광로72번길 67,제주특별자치도 서귀포시 색달동 2812-10,33.2490580,126.4083726
스쿠버스쿨,제주특별자치도 제주시 서해안로 301,제주특별자치도 제주시 도두이동 1669-3,33.5089480,126.4775721
스타빌,제주특별자치도 서귀포시 안덕면 광평로 34-154,제주특별자치도 서귀포시 안덕면 광평리 산31-1,33.3387903,126.3956828
스프링데일CC,제주특별자치도 서귀포시 남원읍 서성로 459번지,제주특별자치도 서귀포시 남원읍 위미리 4625,33.3286742,126.6374821
시크릿가든촬영지,제주특별자치도 서귀포시 중문관광로 198 (중문동),제주특별자치도 서귀포시 중문동 2563-1,33.2429160,126.4202933
신대산전망대,제주특별자치도 제주시 추자면 예초리,제주특별자치도 제주시 추자면 예초리,33.952417,126.334282
신대해안,제주특별자치도 제주시 추자면 예초리 77,제주특별자치도 제주시 추자면 예초리 77,33.9529326,126.3373068
신도포구,제주특별자치도 서귀포시 대정읍 신도리,제주특별자치도 서귀포시 대정읍 신도리,33.2909,126.190178
신비의도로,제주특별자치도 제주시 1100로 2894-63,제주특별자치도 제주시 노형동 289-15,33.4512048,126.4872295
신비의도로카트체험장,제주특별자치도 제주시 노형동 187-3,제주특별자치도 제주시 노형동 187-3,33.4621788,126.4848554
신산공원,제주특별자치도 제주시 신산로 92-12,제주특별자치도 제주시 일도이동 885,33.5052641,126.5337321
신산신양해안도로 (해산물),제주특별자치도 서귀포시 성산읍 고성리,제주특별자치도 서귀포시 성산읍 고성리,33.439184,126.909092
신산환해장성,제주특별자치도 서귀포시 성산읍 신산리,제주특별자치도 서귀포시 성산읍 신산리,33.3836,126.865
신양섭지해수욕장,제주특별자치도 서귀포시 성산읍 섭지코지로 107,제주특별자치도 서귀포시 성산읍 고성리 127-2,33.4302921,126.9293643
신양포구,제주특별자치도 서귀포시 성산읍 고성리,제주특별자치도 서귀포시 성산읍 고성리,33.439184,126.909092
신양항(하추자항),제주특별자치도 제주시 추자면 신양리,제주특별자치도 제주시 추자면 신양리,33.912535,126.325026
신양해안도로,제주특별자치도 서귀포시 성산읍 신고로,제주특별자치도 서귀포시 성산읍 고성리,,
신엄포구,제주특별자치도 제주시 애월읍 애월해안로,제주특별자치도 제주시 애월읍 신엄리,,
신창~차귀해안도로,제주특별자치도 제주시 한경면 한경해안로 470,제주특별자치도 제주시 한경면 신창리 1353-1,33.3418066,126.1712457
신창리포구,제주특별자치도 제주시 한경면 신창리,제주특별자치도 제주시 한경면 신창리,33.3423,126.1798
신창풍차해안도로,제주특별자치도 제주시 한경면 신창리 1322-1,제주특별자치도 제주시 한경면 신창리 1322-1,33.3434260,126.1738911
신천리 벽화마을,제주특별자치도 서귀포시 성산읍 신천리,제주특별자치도 서귀포시 성산읍 신천리,33.3486,126.8528
신천리(용궁올레),제주특별자치도 서귀포시 표선면 신천리,제주특별자치도 서귀포시 표선면 신천리,,
신풍리 밭담길,제주특별자치도 서귀포시 성산읍 신풍하동로 39,제주특별자치도 서귀포시 성산읍 신풍리 500-1,33.3618909,126.8405452
신화워터파크,제주특별자치도 서귀포시 안덕면 신화역사로304번길 38,제주특별자치도 서귀포시 안덕면 서광리 산24,33.3053827,126.3173903
신화테마파크,서귀포시 안덕면 신화역사로304번길 98,제주특별자치도 서귀포시 안덕면 서광리 산35-16,33.3065312,126.3075431
신효 생활개선회,제주특별자치도 서귀포시 효돈순환로 44,제주특별자치도 서귀포시 신효동 240,33.2668393,126.6155284
신효베스트마을,제주특별자치도 서귀포시 일주동로 8190,제주특별자치도 서귀포시 신효동 890-2,33.2607762,126.6124090
신흥2리 동백마을,제주특별자치도 서귀포시 남원읍 한신로531번길 22-1,제주특별자치도 서귀포시 남원읍 신흥리 1759-2,33.3204894,126.7450430
신흥리 동백 & 향나무길,제주특별자치도 서귀포시 남원읍 수망리 59,제주특별자치도 서귀포시 남원읍 수망리 59,33.3300663,126.7317649
심헌갤러리,제주특별자치도 제주시 아란14길 3,제주특별자치도 제주시 아라일동 6075-3,33.4707807,126.5440615
싱계물 공원,제주 제주시 한경면 신창리 1322-1,제주 제주시 한경면 신창리 1322-1,33.3434260,126.1738911
쌍용굴(한림공원),제주특별자치도 제주시 한림읍 한림로 300,제주특별자치도 제주시 한림읍 협재리 2487,33.3902130,126.2397047
썬플라워의원,제주특별자치도 제주시 한림읍 금능남로 127,제주특별자치도 제주시 한림읍 협재리 2838,33.3792581,126.2406834
씨에스호텔 프라이빗스파,제주특별자치도 서귀포시 중문관광로 198,제주특별자치도 서귀포시 중문동 2563-1,33.2429160,126.4202933
아끈다랑쉬,제주특별자치도 제주시 구좌읍 세화리 2593,제주특별자치도 제주시 구좌읍 세화리 2593,33.4753856,126.8302676
아날로그감귤밭,제주특별자치도 제주시 해안마을8길 46,제주특별자치도 제주시 해안동 2463,33.4556711,126.4508701
아라고나이트 온천(디아넥스호텔),제주특별자치도 서귀포시 안덕면 산록남로762번길 71,제주특별자치도 서귀포시 안덕면 상천리 380-7,33.3030343,126.3923592
아라리오뮤지엄동문모텔1,제주특별자치도 제주시 산지로 37-5,제주특별자치도 제주시 일도일동 1159,33.5135509,126.5284252
아라리오뮤지엄동문모텔2,제주특별자치도 제주시 산지로 23,제주특별자치도 제주시 건입동 1140-1,33.5149372,126.5293570
아라리오뮤지엄탑동시네마,제주특별자치도 제주시 삼도2동 1261-8,명제주특별자치도 제주시 탑동로 14,33.5174248,126.5233805
아르떼뮤지엄,제주특별자치도 제주시 애월읍 어림비로 478,제주특별자치도 제주시 애월읍 어음리 1503 아르떼뮤지엄,33.3966970,126.3449783
아름다운피부과,"제주특별자치도 제주시 도령로 5 명은빌딩 2,3,5,7층",제주특별자치도 제주시 노형동 1296-5,33.4867661,126.4799162
아부오름,제주특별자치도 제주시 구좌읍 송당리 산 164-1,제주특별자치도 제주시 구좌읍 송당리 산 164-1,33.4476362,126.7772517
아이리스촬영지(하얀등대),제주특별자치도 서귀포시 표선면,제주특별자치도 서귀포시 표선면,33.32672,126.830994
아이스뮤지엄,제주특별자치도 제주시 은수길 69,제주특별자치도 제주시 연동 1320,33.4706602,126.4879244
아일랜드에프,"제주특별자치도 서귀포시 성산읍 성산등용로 112-7, 2층",제주특별자치도 서귀포시 성산읍 성산리 347-9,33.4719127,126.9331048
아침미소목장,제주특별자치도 제주시 첨단동길 160-20,제주특별자치도 제주시 월평동 155,33.4547978,126.5862300
아침한의원,제주특별자치도 제주시 한림읍 한림중앙로 31,제주특별자치도 제주시 한림읍 한림리 1197-1,33.4120758,126.2653724
아쿠아플라넷 제주,제주특별자치도 서귀포시 성산읍 섭지코지로 95,제주특별자치도 서귀포시 성산읍 고성리 127-3,33.4326445,126.9279667
아프리카박물관,제주특별자치도 서귀포시 이어도로 49,제주특별자치도 서귀포시 대포동 1833,33.2397435,126.4293550
아홉굿마을 낙천리 농어촌체험마을,한경면 낙수로 97,제주특별자치도 제주시 한경면 낙천리 1913,33.3279002,126.2262664
"안녕, 상이 친구들",제주특별자치도 제주시 아란7길 47,제주특별자치도 제주시 아라일동 6050-1,33.4742308,126.5403687
안덕계곡,제주특별자치도 서귀포시 안덕면 일주서로 1524,제주특별자치도 서귀포시 안덕면 감산리 359-1,33.2584093,126.3529655
안덕면 사계어촌계,제주특별자치도 서귀포시 안덕면 형제해안로 20,제주특별자치도 서귀포시 안덕면 사계리 2147,33.2280947,126.3045178
안돌오름,제주특별자치도 제주시 구좌읍 송당리 산 66-2,제주특별자치도 제주시 구좌읍 송당리 산 66-2,33.4572723,126.7560538
"안세미 (명도오름,明道岳)",제주특별자치도 제주시 봉개동 산2,제주특별자치도 제주시 봉개동 산2,33.4679604,126.6062054
알뜨르비행장,제주특별자치도 서귀포시 대정읍 상모리 1670,제주특별자치도 서귀포시 대정읍 상모리 1670,33.2044464,126.2726177
"알밤(알바매기, 알밤오름)",제주특별자치도 제주시 조천읍 선흘남4길 229,제주특별자치도 제주시 조천읍 선흘리 산60,33.4911263,126.7034691
알오름(성산읍),제주특별자치도 서귀포시 성산읍 시흥상동로,제주특별자치도 서귀포시 성산읍 시흥리,,
알오름(표선면),제주특별자치도 서귀포시 표선면 토산리 산 11,제주특별자치도 서귀포시 표선면 토산리 산 11,33.3277494,126.7771725
알작지해변,제주특별자치도 제주시 테우해안로 60,제주특별자치도 제주시 내도동 475,33.4961751,126.4412319
알제이,제주특별자치도 제주시 한경면 고산로 13-4 2F,제주특별자치도 제주시 한경면 고산리 3453-14,33.3027335,126.1791958
알진오름(안친오름),제주특별자치도 제주시 구좌읍 송당리 880-1,제주특별자치도 제주시 구좌읍 송당리 880-1,33.4776299,126.7865649
알프스승마장포니,제주특별자치도 서귀포시 표선면 서성일로 73,제주특별자치도 서귀포시 표선면 성읍리 475,33.3984503,126.8027219
앙데팡당,제주특별자치도 제주시 애월읍 신엄안3길 136-5,제주특별자치도 제주시 애월읍 신엄리 2838,33.4736539,126.3536376
앙리젤,제주특별자치도 제주시 노형12길 23,제주특별자치도 제주시 노형동 3784-12,33.4826192,126.4804908
애월 하물,제주특별자치도 제주시 애월읍 애월로11길 6,제주특별자치도 제주시 애월읍 애월리 1727-4,33.4648663,126.3206153
애월 한담 카약,제주 제주시 애월읍 애월로1길 25,제주특별자치도 제주시 애월읍 애월리 2540,33.4624995,126.3095809
애월스쿠버다이빙스쿨,제주특별자치도 제주시 애월읍 애월로13길 45,제주특별자치도 제주시 애월읍 애월리 1737-10,33.4661348,126.3215492
애월연대,제주특별자치도 제주시 애월읍 애월리 1975,제주특별자치도 제주시 애월읍 애월리 1975,33.4656352,126.3130443
애월한담해안산책로,제주특별자치도 제주시 애월읍 곽지리 1359,제주특별자치도 제주시 애월읍 곽지리 1359,33.4590482,126.3105268
애월해안도로,제주특별자치도 제주시 애월읍 애월해안로,제주특별자치도 제주시 애월읍 애월리,,
애월환해장성,제주특별자치도 제주시 애월읍 애월로3길 60,제주특별자치도 제주시 애월읍 애월리 1957,33.4679891,126.3133132
액트(AC.lll.T) 볼링장,제주특별자치도 서귀포시 안덕면 신화역사로304번길 98,제주특별자치도 서귀포시 안덕면 서광리 산35-16,33.3065312,126.3075431
액티브파크,제주특별자치도 제주시 한림읍 금능남로 76,제주특별자치도 제주시 한림읍 금능리 2225,33.3811520,126.2360825
약천사,제주특별자치도 서귀포시 이어도로 293-28,제주특별자치도 서귀포시 대포동 1161,33.2452785,126.4501816
약천사 템플스테이,제주특별자치도 서귀포시 이어도로 293-28 (대포동),제주특별자치도 서귀포시 대포동 1161,33.2452785,126.4501816
어리목계곡,제주특별자치도 제주시 1100로 2070-61,제주특별자치도 제주시 해안동 산220-13,33.3926876,126.4948419
어린이교통공원,제주특별자치도 제주시 명림로 437 (봉개동 4.3 공원 맞은편),제주특별자치도 제주시 봉개동 237-18,33.4514813,126.6233515
어승생,제주특별자치도 제주시 해안동 1100도로 555번지 (해안동 산220-12번지),명제주특별자치도 제주시 해안마을7다길 9,33.4569763,126.4586365
어영공원,제주특별자치도 제주시 서해안로 452 (맞은편 공원),제주특별자치도 제주시 용담삼동 2396,33.5177090,126.4877674
엄바위장승,제주특별자치도 제주시 추자면 예초리 332,제주특별자치도 제주시 추자면 예초리 332,33.9524967,126.3289102
엉덩물계곡,제주특별자치도 서귀포시 중문관광로 192,제주특별자치도 서귀포시 중문동 2785-2,33.2432311,126.4190029
엉또폭포,제주특별자치도 서귀포시 염돈로 121-8 (강정동),제주특별자치도 서귀포시 강정동 5628,33.2588204,126.4919225
엉알해안,제주특별자치도 제주시 한경면 고산리 3427-33,제주특별자치도 제주시 한경면 고산리 3427-33,33.2988265,126.1685774
엉알해안산책로,제주특별자치도 제주시 한경면 노을해안로 1143,제주특별자치도 제주시 한경면 고산리 3616-10,33.3079512,126.1639761
에버리스 골프리조트,제주특별자치도 제주시 애월읍 평화로 1693-75,제주특별자치도 제주시 애월읍 어음리 523-22,33.3693256,126.3654286
에코랜드 테마파크,제주특별자치도 제주시 조천읍 번영로 1278-169,제주특별자치도 제주시 조천읍 대흘리 1221-1,33.4553485,126.6688528
에코승마아카데미,제주특별자치도 제주시 조천읍 비자림로 1065,제주특별자치도 제주시 조천읍 교래리 39-3,33.4345495,126.7186785
에코승마아카데미(구.제주승마장),제주특별자치도 제주시 조천읍 교래리 39-3번지 (비자림로 1065),명제주특별자치도 제주시 조천읍 비자림로 1065,33.4343413,126.7181304
여미지식물원,제주특별자치도 서귀포시 중문관광로 93,제주특별자치도 서귀포시 색달동 2484-1,33.2526510,126.4142190
연대포구,제주특별자치도 제주시 외도2동,제주특별자치도 제주시 외도2동,33.493306,126.428835
연미마을(오라리 방화사건 현장),제주특별자치도 제주시 연사길 142,제주특별자치도 제주시 오라이동 3030-1,33.4868096,126.5053000
연북정,제주특별자치도 제주시 조천읍 조천리 2690,제주특별자치도 제주시 조천읍 조천리 2690,33.5401943,126.6359441
연화못,제주특별자치도 제주시 애월읍 고하상로,제주 제주시 애월읍 하가리,,
열리해안길,제주특별자치도 서귀포시 하예동,제주특별자치도 서귀포시 하예동,33.2394,126.3804
영남동,제주특별자치도 서귀포시 산록남로 1966-34,제주특별자치도 서귀포시 영남동 224,33.2887775,126.4961204
영등할망 신화공원,제주 제주시 한림읍 귀덕11길 19,제주특별자치도 제주시 한림읍 귀덕리 989-2,33.4452141,126.2944511
영모원,제주특별자치도 제주시 애월읍 하귀리 1130-1,제주특별자치도 제주시 애월읍 하귀리 1130-1,,
영실기암,제주특별자치도 서귀포시 하원동,제주특별자치도 서귀포시 하원동,33.3003,126.4652
영주산,제주특별자치도 서귀포시 표선면 번영로,제주특별자치도 서귀포시 표선면,,
영천악(영천오름),제주특별자치도 서귀포시 516로 652,제주특별자치도 서귀포시 상효동 1154-11,33.3082896,126.5994086
예래생태체험관,제주특별자치도 서귀포시 예래로 213,제주특별자치도 서귀포시 하예동 24-1,33.2444220,126.3909498
예래해안도로,제주특별자치도 서귀포시 예래해안로,제주특별자치도 서귀포시 하예동,,
예술공간 이아,제주특별자치도 제주시 중앙로14길 21,제주특별자치도 제주시 삼도이동 154,33.5108211,126.5219533
예절이오름(여절악),제주특별자치도 서귀포시 남원읍 신흥리 산 18,제주특별자치도 서귀포시 남원읍 신흥리 산 18,33.3483237,126.7358510
예초리,제주특별자치도 제주시 추자도 예초리,제주특별자치도 제주시 추자도 예초리,,
예초리기정길,제주특별자치도 제주시 추자면 예초리 산 1,제주특별자치도 제주시 추자면 예초리 산 1,33.9556868,126.3379665
예초리포구,제주특별자치도 제주시 추자면 추자로 753,제주특별자치도 제주시 추자면 예초리 200-1,33.9557058,126.3322813
예초리해변,제주특별자치도 제주시 추자면 예초리,제주특별자치도 제주시 추자면 예초리,33.952417,126.334282
오라동 청보리-메밀꽃밭,제주특별자치도 제주시 오라2동 산 76,제주특별자치도 제주시 오라2동 산 76,33.4271365,126.5057721
오래물,제주특별자치도 제주시 도공로 2,제주특별자치도 제주시 도두일동 2614-5,33.5061379,126.4649906
오름터 민속마을,제주특별자치도 서귀포시 표선면 성읍정의현로 99,제주특별자치도 서귀포시 표선면 성읍리 599-1,33.3914911,126.8006314
오림반,제주특별자치도 서귀포시 남원읍 신례리,제주특별자치도 서귀포시 남원읍 신례리,33.339574,126.617913
오멍가멍 애견카페&호텔,제주특별자치도 제주시 어영길 64-14,제주특별자치도 제주시 용담삼동 1206,33.5174358,126.4981984
오백나한,제주특별자치도 서귀포시 영실로 245 (하원동),제주특별자치도 서귀포시 하원동 산1-1,33.3403916,126.4808196
오설록티뮤지엄,제주특별자치도 서귀포시 안덕면 신화역사로 15,제주특별자치도 서귀포시 안덕면 서광리 1235-1,33.3060844,126.2893927
오조포구,제주특별자치도 서귀포시 성산읍 오조리,제주특별자치도 서귀포시 성산읍 오조리,33.461268,126.904488
오페라 옴니아 : 라파엘로展,제주특별자치도 서귀포시 안덕면 녹차분재로 218,제주특별자치도 서귀포시 안덕면 서광리 산39,33.3043418,126.2996189
오현단,제주특별자치도 제주시 오현길 61,제주특별자치도 제주시 이도일동 1421-34,33.5103090,126.5255377
옥돔마을,제주특별자치도 서귀포시 남원읍 남태해안로 508,제주특별자치도 서귀포시 남원읍 태흥리 364-4,33.2870051,126.7494482
온평리 포구,제주특별자치도 서귀포시 성산읍 온평리,제주특별자치도 서귀포시 성산읍 온평리,33.409,126.8926
온평리 환해장성,제주특별자치도 서귀포시 성산읍 환해장성로 732,제주특별자치도 서귀포시 성산읍 온평리 65,33.4180024,126.9103599
올레바당체험마을,제주특별자치도 제주시 한림읍 한림해안로 267-6,제주특별자치도 제주시 한림읍 수원리 724-4,33.4254663,126.2641180
올레여행자센터,제주특별자치도 서귀포시 중정로 22,제주특별자치도 서귀포시 서귀동 316-1,33.2474052,126.5586670
올레캠프 본점 알파캠프,제주특별자치도 서귀포시 성산읍 고성오조로 106,제주특별자치도 서귀포시 성산읍 고성리 1207-2,33.4530008,126.9140232
옷귀마테마타운,제주특별자치도 서귀포시 남원읍 서성로 955-117,제주특별자치도 서귀포시 남원읍 한남리 1631-1,33.3404485,126.6834324
옹포천,제주특별자치도 제주시 한림읍 한림로 563,제주특별자치도 제주시 한림읍 옹포리 404,33.4075427,126.2572717
옹포포구,제주특별자치도 제주시 한림읍 옹포리,제주특별자치도 제주시 한림읍 옹포리,33.399048,126.251608
와흘본향당,제주특별자치도 제주시 조천읍 와흘리 1274-1,제주특별자치도 제주시 조천읍 와흘리 1274-1,33.5022985,126.6389991
왈종미술관,제주특별자치도 서귀포시 칠십리로214번길 30,제주특별자치도 서귀포시 동홍동 281-2,33.2452893,126.5736655
왕이메오름,제주특별자치도 서귀포시 안덕면 광평리 산 79,제주특별자치도 서귀포시 안덕면 광평리 산 79,33.3409746,126.3751506
외돌개,제주특별자치도 서귀포시 서홍동 791,제주특별자치도 서귀포시 서홍동 791,33.2400367,126.5456420
요가느림원,제주특별자치도 제주시 원노형2길 33,제주특별자치도 제주시 노형동 922-6,33.4832809,126.4816496
요기개,제주특별자치도 제주시 오남로 280,제주특별자치도 제주시 오라이동 843-5,33.4712460,126.5133122
요람,제주특별자치도 서귀포시 검은여로129번길 13,제주특별자치도 서귀포시 토평동 759-1,33.2532424,126.5830927
용눈이오름,제주특별자치도 제주시 구좌읍 종달리 산28,제주특별자치도 제주시 구좌읍 종달리 산28,33.4612044,126.8335266
용담 1동 벽화거리,제주특별자치도 제주시 서문로5길 1,제주특별자치도 제주시 용담일동 130-6,33.5117645,126.5170157
용담/용두암 해안도로,제주특별자치도 제주시 서해안로 687-8,제주특별자치도 제주시 용담이동 488-9,33.5155559,126.5121031
용담레포츠공원,제주특별자치도 제주시 서해안로 580,제주특별자치도 제주시 용담삼동 1089,33.5182372,126.4994427
용두암,제주특별자치도 제주시 용두암길 15,제주특별자치도 제주시 용담이동 483,33.5148920,126.5114000
용두암해안도로카페거리,제주특별자치도 제주시 용담3동,제주특별자치도 제주시 용담3동,33.516513,126.496333
용둠범목제계단길,제주특별자치도 제주시 추자면 영흥리,제주특별자치도 제주시 추자면 영흥리,33.9569,126.2964
용머리해안,제주특별자치도 서귀포시 안덕면 사계리 112-3,제주특별자치도 서귀포시 안덕면 사계리 112-3,33.2334804,126.3146170
용수항,제주특별자치도 제주시 한경면 용수리,제주특별자치도 제주시 한경면 용수리,33.3241,126.183
용연,제주특별자치도 제주시 흥운길 73,제주특별자치도 제주시 용담이동 454-1,33.5151923,126.5139762
용연카누클럽,제주특별자치도 제주시 용담2동 438,명제주특별자치도 제주시 흥운길 79,33.5155937,126.5139796
우도 득성이코지,제주특별자치도 제주시 우도면 연평리,제주특별자치도 제주시 우도면 연평리,33.5075,126.9549
우도 봉수대,제주특별자치도 제주시 우도면 연평리 798,제주특별자치도 제주시 우도면 연평리 798,33.5245738,126.9525447
우도 비양도,제주특별자치도 제주시 우도면 연평리,제주특별자치도 제주시 우도면 연평리,33.5075,126.9549
우도(해양도립공원),제주특별자치도 제주시 우도면 삼양고수물길 1,제주특별자치도 제주시 우도면 연평리 904-1,33.5194929,126.9510302
우도등대,제주특별자치도 제주시 우도면 우도봉길 105,제주특별자치도 제주시 우도면 연평리 337,33.4929803,126.9651427
우도봉 ATV,제주특별자치도 제주시 우도면 우도봉길 47,제주특별자치도 제주시 우도면 연평리 343-2,33.4935481,126.9596677
우도봉 풍경,제주특별자치도 제주시 우도면 연평리 1,제주특별자치도 제주시 우도면 연평리 1,33.5150148,126.9691736
우도산호해변 홍조단괴 서빈백사,제주특별자치도 제주시 우도면 우도해안길 252,제주특별자치도 제주시 우도면 연평리 2516-2,33.5026516,126.9437398
우도스쿠터여행,제주특별자치도 제주시 우도면 2395-5,제주특별자치도 제주시 우도면 2395-5,,
우도올레보트,제주특별자치도 제주시 우도면 연평리 2562-1,제주특별자치도 제주시 우도면 연평리 2562-1,33.5016586,126.9445583
우도잠수함(제주씨월드),제주특별자치도 서귀포시 성산읍 성산등용로 130-21,제주특별자치도 서귀포시 성산읍 성산리 347-9,33.4729280,126.9345062
우도징기스칸승마체험,제주특별자치도 제주시 우도면 우도해안길 446,제주특별자치도 제주시 우도면 연평리 988-1,33.5148701,126.9495505
우포토 시네마 갤러리 카페,제주특별자치도 서귀포시 대정읍 상모로 216-2,제주특별자치도 서귀포시 대정읍 상모리 2625-5,33.2253254,126.2659337
"웃밤(웃바매기,웃밤오름)",제주특별자치도 제주시 조천읍 선흘리 산 84,제주특별자치도 제주시 조천읍 선흘리 산 84,33.4781773,126.7142381
웃세오름(누운오름),제주특별자치도 제주시 애월읍 1100로 1579-25,제주특별자치도 제주시 애월읍 광령리 산183-4,33.3598302,126.4606868
웃세오름(족은오름),제주특별자치도 제주시 애월읍 평화로,제주특별자치도 제주시 애월읍 광령리 ,,
원당봉,제주특별자치도 제주시 원당로16길 16-30,제주특별자치도 제주시 삼양일동 산1-2,33.5260044,126.5982215
원동,제주특별자치도 제주시 애월읍 소길리 1364 일대,제주특별자치도 제주시 애월읍 소길리 1364 일대,33.4004819,126.3802942
원앙카라반캠핑장앤야영장,제주특별자치도 서귀포시 돈내코로 120,제주특별자치도 서귀포시 상효동 1460-3,33.3001307,126.5844363
원앙폭포,제주특별자치도 서귀포시 돈내코로 137,제주특별자치도 서귀포시 상효동 1463,33.3004966,126.5820043
월나봉(도래오름),제주특별자치도 서귀포시 안덕면 감산리 1148 일대,제주특별자치도 서귀포시 안덕면 감산리 1148 일대,33.2443911,126.3498417
월대천,제주특별자치도 제주시 월대6길 5,제주특별자치도 제주시 외도이동 232-1,33.4935132,126.4359776
월라봉 진지동굴 (안덕면),제주 서귀포시 안덕면 감산리,제주 서귀포시 안덕면 감산리,33.2493,126.3511
월라봉(효돈),제주특별자치도 서귀포시 월라봉로 76-40,제주특별자치도 서귀포시 신효동 산1,33.2705119,126.6045655
월라사,제주특별자치도 서귀포시 효돈순환로 415,제주특별자치도 서귀포시 신효동 579-2,33.2690434,126.6098556
월령선인장군락지,제주특별자치도 제주시 한림읍 월령리 359-4,제주특별자치도 제주시 한림읍 월령리 359-4,33.3778730,126.2154218
월령포구,제주특별자치도 제주시 한림읍 월평리,제주특별자치도 제주시 한림읍 월평리,,
월정 투명카약,제주특별자치도 제주시 구좌읍 월정리 1400-33,제주특별자치도 제주시 구좌읍 월정리 1400-33,33.5638491,126.7786252
월정리해변,제주특별자치도 제주시 구좌읍 월정리 33-3,명제주특별자치도 제주시 구좌읍 해맞이해안로 485,33.5551082,126.7986579
월정리해안도로,제주특별자치도 제주시 구좌읍 월정리 652-4,제주특별자치도 제주시 구좌읍 월정리 652-4,33.5565816,126.7949115
월평포구,제주특별자치도 서귀포시 말질로 462,제주특별자치도 서귀포시 월평동 665,33.2344782,126.4637821
위미리 동백나무군락,제주특별자치도 서귀포시 남원읍 위미중앙로300번길 23-7,제주특별자치도 서귀포시 남원읍 위미리 906-4,33.2727065,126.6760299
위미항,제주특별자치도 서귀포시 남원읍 위미중앙로196번길 6-13,제주특별자치도 서귀포시 남원읍 위미리 1757-12,33.2712755,126.6623803
윈드1947 카트 테마파크,제주특별자치도 서귀포시 토평공단로 78-27,제주특별자치도 서귀포시 토평동 1799,33.2895305,126.5888307
윗세오름(웃세오름),제주특별자치도 제주시 애월읍 광령리 산 183-1,제주특별자치도 제주시 애월읍 광령리 산 183-1,33.3708542,126.4777150
유건에오름,제주특별자치도 서귀포시 성산읍 난산리 2302,제주특별자치도 서귀포시 성산읍 난산리 2302,33.4135141,126.8467811
유동룡미술관,제주특별자치도 제주시 한림읍 용금로 906-10,제주특별자치도 제주시 한림읍 월림리 115-161,33.3405832,126.2708202
유리멘탈 스튜디오,제주특별자치도 제주시 한경면 낙수로12길,제주특별자치도 제주시 한경면 조수리 1464-8,33.3343803,126.2268695
유민미술관,제주특별자치도 서귀포시 성산읍 고성리 21,제주특별자치도 서귀포시 성산읍 고성리 21,33.4289660,126.9321373
유진팡 열대과일농장,제주특별자치도 서귀포시 남원읍 원님로399번길 31-7,제주특별자치도 서귀포시 남원읍 신흥리 2177,33.3399265,126.7424986
유캠프,제주특별자치도 제주시 애조로 1216,제주특별자치도 제주시 오라이동 504,33.4611031,126.5109773
육시우영,제주특별자치도 제주시 애월읍 하가리,제주특별자치도 제주시 애월읍 하가리,33.45342,126.3542
율랜드 다이브센터,제주특별자치도 서귀포시 칠십리로 490,제주특별자치도 서귀포시 보목동 762-5,33.2415151,126.6030720
이니스프리제주하우스,제주특별자치도 서귀포시 안덕면 신화역사로 23,제주특별자치도 서귀포시 안덕면 서광리 1235-1,33.3067025,126.2908890
이덕구 산전,제주특별자치도 제주시 조천읍 516로 1865,제주특별자치도 제주시 조천읍 교래리 산137-24,33.3845019,126.6194078
이랜드뮤지엄,제주특별자치도 제주시 한림해안로 530,제주특별자치도 제주시 한림읍 귀덕리 3861,33.4358040,126.2744306
이로이로공방,제주특별자치도 제주시 구좌읍 하도7길 16-11,제주특별자치도 제주시 구좌읍 하도리 1249,33.5157180,126.8863518
이상한 나라의 앨리스,제주특별자치도 서귀포시 안덕면 중산간서로 1881,제주특별자치도 서귀포시 안덕면 서광리 717-3,33.2889424,126.3218182
이승이오름(이승악),제주특별자치도 서귀포시 남원읍 신례리 산 12-19,명제주특별자치도 서귀포시 남원읍 신례천로 267-110,33.3148415,126.6310593
이음새,제주특별자치도 서귀포시 남원읍 위미리 4137-1,제주특별자치도 서귀포시 남원읍 위미리 4137-1,33.2757769,126.6514153
이중섭거리,제주특별자치도 서귀포시 이중섭로 4-1 (서귀동),제주특별자치도 서귀포시 서귀동 370-21,33.2476100,126.5639941
이중섭거주지,제주특별자치도 서귀포시 이중섭로 29,제주특별자치도 서귀포시 서귀동 512-1,33.2455527,126.5643216
이중섭미술관,제주특별자치도 서귀포시 이중섭로 27-3,제주특별자치도 서귀포시 서귀동 532-1,33.2458617,126.5648745
이편한치과,제주특별자치도 제주시 연북로 527 반디빌딩 5층,제주특별자치도 제주시 아라일동 6035-1,33.4851842,126.5361543
이호-내도 해안도로,제주특별자치도 제주시 테우해안로 60,제주특별자치도 제주시 내도동 475,33.4961751,126.4412319
이호털보네배낚시,제주특별자치도 제주시 이호1동 1787,명제주특별자치도 제주시 테우해안로 146,33.4971719,126.4493453
이호테우말등대,제주특별자치도 제주시 서해안로 58,제주특별자치도 제주시 이호일동 374,33.5021616,126.4564169
이호테우해수욕장,제주특별자치도 제주시 도리로 20,제주특별자치도 제주시 이호이동 1600-1,33.4961783,126.4559012
익스트림제주 카약올레,제주시 애월읍 애월로1길 22,제주특별자치도 제주시 애월읍 애월리 2490-1,33.4623327,126.3104764
일출랜드,제주특별자치도 서귀포시 성산읍 중산간동로 4150-30,제주특별자치도 서귀포시 성산읍 삼달리 1010,33.3832875,126.8415364
일출랜드 아트센터,제주특별자치도 서귀포시 성산읍 중산간동로 4150-30,제주특별자치도 서귀포시 성산읍 삼달리 1010,33.3832875,126.8415364
임문숙 가족 헛묘,제주특별자치도 서귀포시 안덕면 동광리 807-4,제주특별자치도 서귀포시 안덕면 동광리 807-4,33.3090167,126.3405429
입산봉(삿갓오름),제주특별자치도 제주시 구좌읍 김녕리 1033-19,제주특별자치도 제주시 구좌읍 김녕리 1033-19,33.5490269,126.7555989
자구내포구,제주특별자치도 제주시 한경면 고산리,제주특별자치도 제주시 한경면 고산리,33.302744,126.181314
자구리공원,제주특별자치도 서귀포시 칠십리로 145,제주특별자치도 서귀포시 서귀동 70,33.2443818,126.5689264
자리왓,제주특별자치도 제주시 애월읍 봉성리 1410 일대,제주특별자치도 제주시 애월읍 봉성리 1410 일대,33.4043992,126.3277366
"자배봉(자배오름,망오름)",제주특별자치도 서귀포시 남원읍  위미리 산 132-1,제주특별자치도 서귀포시 남원읍  위미리 산 132-1,33.3015316,126.6759934
장생의 숲길,제주특별자치도 제주시 명림로 584,제주특별자치도 제주시 봉개동 산78-1,33.4400577,126.6251975
장전리 벚꽃축제길,제주특별자치도 제주시 애월읍 광상로 403,제주특별자치도 제주시 애월읍 장전리 628-3,33.4432753,126.3906051
저지 예술인 마을,제주특별자치도 제주시 한경면 저지14길 28-4,제주특별자치도 제주시 한경면 저지리 2120-116,33.3395130,126.2671183
"저지오름(닥몰오름,새오름)",제주특별자치도 제주시 한경면 저지리 산 51,제주특별자치도 제주시 한경면 저지리 산 51,33.3329925,126.2509324
전농로 서사라문화거리,제주특별자치도 제주시 서사로7길 27,제주특별자치도 제주시 삼도이동 1230-4,33.5065738,126.5223908
절물오름(큰대나),제주특별자치도 제주시 명림로 584 일대,제주특별자치도 제주시 봉개동 산78-1,33.4400577,126.6251975
절부암,제주특별자치도 제주시 한경면 용수3길 22,제주특별자치도 제주시 한경면 용수리 4241-1,33.3239349,126.1672002
점보빌리지,제주특별자치도 서귀포시 안덕면 평화로 319번길 31-11,제주특별자치도 서귀포시 안덕면 서광리 2351,33.2761911,126.3050869
정모시쉼터,제주특별자치도 서귀포시 부두로5번길 9,제주특별자치도 서귀포시 서귀동 57-4,33.2447060,126.5662068
정물오름,제주특별자치도 제주시 한림읍 금악리 산 52-1,제주특별자치도 제주시 한림읍 금악리 산 52-1,33.3379407,126.3298911
정방폭포,제주특별자치도 서귀포시 칠십리로214번길 37,제주특별자치도 서귀포시 동홍동 278,33.2447480,126.5730501
정의향교,제주특별자치도 서귀포시 표선면 성읍서문로 14,제주특별자치도 서귀포시 표선면 성읍리 820-1,33.3869918,126.7998025
정의현 일관헌,제주특별자치도 서귀포시 표선면 성읍리 690,제주특별자치도 서귀포시 표선면 성읍리 690,33.3882595,126.8009513
정주항,제주특별자치도 제주시 조천읍 함덕리,제주특별자치도 제주시 조천읍 함덕리,33.534575,126.66015
제라진 제주오프로드 사파리,제주특별자치도 제주시 조천읍 선교로 33,제주특별자치도 제주시 조천읍 선흘리 624-4,33.4871768,126.7159716
제라펫,제주특별자치도 제주시 용담로20길 28,제주특별자치도 제주시 용담일동 246-28,33.5078502,126.5134520
제로스테이션(제로포인트트레일),제주특별자치도 제주시 산지로 25 2층,제주특별자치도 제주시 건입동 1136,33.5147584,126.5292263
제스피 맥주협동조합 양조장,제주특별자치도 서귀포시 남원읍 서성로652번길 63-3,제주특별자치도 서귀포시 남원읍 한남리 산5-20,33.3233978,126.6717896
제원한의원,제주특별자치도 제주시 신대로14길 36 2층,제주특별자치도 제주시 연동 282-52,33.4879197,126.4927839
제이앤승마클럽,제주특별자치도 제주시 해안마을7길 211,제주특별자치도 제주시 해안동 351,33.4460970,126.4689836
제이홀스 승마클럽,제주특별자치도 제주시 월산남길 284,제주특별자치도 제주시 해안동 317-2,33.4499827,126.4719816
제주 더팔팔농장,제주특별자치도 서귀포시 성산읍 독자봉로60번길 20,제주특별자치도 서귀포시 성산읍 신산리 1371-1,33.3857010,126.8711545
제주 삼양동 유적,제주특별자치도 제주시 선사로2길 13 (삼양일동),제주특별자치도 제주시 삼양일동 1660-5,33.5233167,126.5877500
제주 이호털보 배낚시,제주시 테우해안로 146,제주특별자치도 제주시 이호일동 1787,33.4972078,126.4493536
제주 카카오캠핑,제주특별자치도 제주시 일주서로 7867,제주특별자치도 제주시 연동 1987,33.4940953,126.4872881
제주 토이 승마장,제주특별자치도 서귀포시 안덕면 동광로 265-14,제주특별자치도 서귀포시 안덕면 동광리 897-2,33.3182965,126.3451270
제주 패러글라이딩 스쿨,"제주특별자치도 제주시 신선길 17-6, 일도주택3층(일도2동)",제주특별자치도 제주시 일도이동 1029-139,33.5105103,126.5301624
제주4.3평화공원,제주특별자치도 제주시 명림로 430,제주특별자치도 제주시 봉개동 237-2,33.4498256,126.6177477
제주고산리유적,제주특별자치도 제주시 한경면 노을해안로 1100,제주특별자치도 제주시 한경면 고산리 3650-1,33.3041632,126.1661787
제주공룡랜드[휴장중],제주특별자치도 제주시 애월읍 광령평화2길 1,제주특별자치도 제주시 애월읍 광령리 2698,33.4427911,126.4323827
제주곶자왈도립공원,제주특별자치도 서귀포시 대정읍 에듀시티로 178,제주특별자치도 서귀포시 대정읍 보성리 산1,33.2832031,126.2734831
제주교육박물관,제주특별자치도 제주시 오복 4길 25,제주특별자치도 제주시 이도이동 539-14,33.4946579,126.5378809
제주국제공항,제주특별자치도 제주시 공항로 2,제주특별자치도 제주시 용담이동 2002,33.5059364,126.4959513
제주국제공항(정뜨르비행장),제주특별자치도 제주시 공항로 2,제주특별자치도 제주시 용담이동 2002,33.5059364,126.4959513
제주국제예술센터,제주특별자치도 서귀포시 대정읍 서삼중로 117,제주특별자치도 서귀포시 대정읍 무릉리 3296,33.2720363,126.1995861
제주국제컨벤션센터 icc,제주특별자치도 서귀포시 중문관광로 224,제주특별자치도 서귀포시 중문동 2700,33.2412892,126.4244533
제주국제평화센터,제주특별자치도 서귀포시 중문 관광로 227-24,제주특별자치도 서귀포시 중문동 2571,33.2451831,126.4214230
제주글램핑 (무한자미향),제주특별자치도 제주시 구좌읍 중산간동로 1921,제주특별자치도 제주시 구좌읍 덕천리 1811,33.4819897,126.7520260
제주기독교순례길,제주특별자치도 제주시 애월읍 금성하안길 3,제주특별자치도 제주시 애월읍 금성리 436-3,33.4465347,126.3026885
제주김녕미로공원,제주특별자치도 제주시 구좌읍 만장굴길 122,제주특별자치도 제주시 구좌읍 김녕리 산16,33.5362945,126.7720257
제주난타,제주특별자치도 제주시 선돌목동길 56-26,제주특별자치도 제주시 오등동 10-1,33.4458273,126.5479103
제주농업학교 옛터,제주특별자치도 제주시 전농로 100,제주특별자치도 제주시 삼도일동 305-4,33.5040519,126.5237427
제주다,제주특별자치도 제주시 애월읍 납읍남로 65,제주특별자치도 제주시 애월읍 납읍리 1417-4,33.4312648,126.3292905
제주다원 녹차미로공원,제주특별자치도 서귀포시 산록남로 1258,제주특별자치도 서귀포시 색달동 산51-4,33.2937132,126.4224687
제주다이브 체험다이빙,제주특별자치도 서귀포시 월드컵로 84,제주특별자치도 서귀포시 강정동 349-1,33.2421861,126.5048376
제주대학교 가는길,제주특별자치도 제주시 제주대학로 102,제주특별자치도 제주시 아라일동 1,33.4559020,126.5623921
제주대학교병원,제주특별자치도 제주시 아란13길 15,제주특별자치도 제주시 아라일동 1753-3,33.4671105,126.5452109
제주도공방노꼬메,제주특별자치도 제주시 동문로21길 19-2,제주특별자치도 제주시 건입동 1043-2,33.5157069,126.5368174
제주도립김창열미술관,제주특별자치도 제주시 한경면 용금로 883-5,제주특별자치도 제주시 한림읍 월림리 115-23,33.3390792,126.2686755
제주돌마을공원,제주특별자치도 제주시 한림읍 금능남로 421,제주특별자치도 제주시 한림읍 금능리 368-2,33.3537841,126.2536923
제주돌문화공원,제주특별자치도 제주시 조천읍 남조로 2023,제주특별자치도 제주시 조천읍 교래리 산95,33.4513670,126.6567103
제주돌하르방캠핑장,제주특별자치도 제주시 한경면 낙수로 271-40,제주특별자치도 제주시 한경면 청수리 2130,33.3238526,126.2389466
제주동백수목원,제주특별자치도 서귀포시 남원읍 위미중앙로300번길 15,제주특별자치도 서귀포시 남원읍 위미리 904-3,33.2727117,126.6751305
제주라프 짚라인,제주특별자치도 제주시 조천읍 선교로 117,제주특별자치도 제주시 조천읍 선흘리 600,33.4868749,126.7061141
제주러브랜드,제주특별자치도 제주시 1100로 2894-72,제주특별자치도 제주시 연동 680-26,33.4518907,126.4888690
제주레이크힐스컨트리클럽,제주특별자치도 서귀포시 산록남로 1391 (중문동),제주특별자치도 서귀포시 중문동 산5,33.2971177,126.4353859
제주레일바이크,제주특별자치도 제주시 구좌읍 용눈이오름로 641,제주특별자치도 제주시 구좌읍 종달리 4639,33.4643295,126.8366151
제주레포츠랜드,제주특별자치도 제주시 조천읍 와흘상서2길 47,제주특별자치도 제주시 조천읍 와흘리 870,33.4823312,126.6387264
제주롯데스카이힐컨트리클럽,제주특별자치도 서귀포시 상예로 530,제주특별자치도 서귀포시 색달동 240,33.2872525,126.4053086
제주목관아,제주특별자치도 제주시 관덕로 25,제주특별자치도 제주시 삼도이동 1045-1,33.5140021,126.5218052
제주문예회관,제주특별자치도 제주시 동광로 69,제주특별자치도 제주시 일도이동 852,33.5044361,126.5349000
제주미래교육연구원 과학탐구체험장,제주특별자치도 제주시 산록북로 421,제주특별자치도 제주시 오라이동 1-2,33.4262207,126.5318570
제주민속촌,제주특별자치도 서귀포시 표선면 민속해안로 631-34,제주특별자치도 서귀포시 표선면 표선리 40-1,33.3212872,126.8430883
제주바다체험장,제주특별자치도 제주시 구좌읍 동복리 608-3,명제주특별자치도 제주시 구좌읍 일주동로 1777,33.5546663,126.7218300
제주베니스랜드,제주특별자치도 서귀포시 성산읍 난산리 2575,제주특별자치도 서귀포시 성산읍 난산리 2575,33.4161363,126.8408792
제주베스트힐,제주특별자치도 제주시 조천읍 남조로 2109-38,제주특별자치도 제주시 조천읍 교래리 786-29,33.4540130,126.6577207
제주별빛누리공원,제주특별자치도 제주시 선돌목동길 60,제주특별자치도 제주시 오등동 10-34,33.4445768,126.5492077
제주불교성지 순례길 절로 가는길 - 보시의 길,제주특별자치도 제주시 애월읍 수산곰솔길 56,제주특별자치도 제주시 애월읍 수산리 산1-3,33.4734726,126.3859051
제주불교성지 순례길 절로 가는길 - 인욕의 길,제주특별자치도 제주시 산록북로 660,제주특별자치도 제주시 아라일동 387,33.4217218,126.5587513
제주불교성지 순례길 절로 가는길 - 정진의 길,제주특별자치도 서귀포시 영실로 246 (하원동),제주특별자치도 서귀포시 하원동 산1-1,33.3401088,126.4805166
제주불교성지 순례길 절로 가는길 - 지계의 길,제주특별자치도 제주시 서연길 10,제주특별자치도 제주시 연동 69-4,33.4972862,126.4998208
제주불교성지 순례길 절로가는길 - 선정의 길,제주특별자치도 서귀포시 516로771번길 59,제주특별자치도 서귀포시 상효동 산86-13,33.3199731,126.5931079
제주불빛정원 테마파크,제주특별자치도 제주시 애월읍 평화로 2346,제주특별자치도 제주시 애월읍 유수암리 1083,33.4225976,126.4089682
제주빅볼랜드,제주특별자치도 제주시 구좌읍 금백조로 951,제주특별자치도 제주시 구좌읍 송당리 산164-4,33.4430807,126.7757004
제주사랑방(제주책방),제주특별자치도 제주시 관덕로17길 27-1,제주특별자치도 제주시 일도일동 1243-1,33.5149206,126.5283001
제주성지,제주특별자치도 제주시 오현길 61,제주특별자치도 제주시 이도일동 1421-34,33.5103090,126.5255377
제주세계자연유산센터,제주특별자치도 제주시 조천읍 선교로 569-36(선흘리 478),제주특별자치도 제주시 조천읍 선흘리 478,33.4568773,126.7142801
제주센트럴파크,제주특별자치도 제주시 조천읍 비자림로 606,제주특별자치도 제주시 조천읍 교래리 산56-4,33.4331956,126.6745539
제주스쿠터여행,제주시 서광로 164,제주특별자치도 제주시 오라일동 2440-5,33.4998532,126.5138313
제주승마공원,제주특별자치도 제주시 애월읍 녹고메길 152-1,제주특별자치도 제주시 애월읍 유수암리 1175,33.4055976,126.4065495
제주시 충혼묘지 4·3추모비(박진경 추도비),제주특별자치도 제주시 노형동 산 19-2,제주특별자치도 제주시 노형동 산 19-2,33.4116641,126.4921708
제주신화전설탐방로,제주특별자치도 서귀포시 안덕면 녹차분재로 218,제주특별자치도 서귀포시 안덕면 서광리 산39,33.3043418,126.2996189
제주실탄사격장,제주특별자치도 서귀포시 소보리당로 164번길 62(상예동),제주특별자치도 서귀포시 상예동 2802,33.2636714,126.3855463
제주아리랑 NEW 혼,제주특별자치도 서귀포시 표선면 번영로 2564-21,제주특별자치도 서귀포시 표선면 성읍리 2684,33.4027143,126.7786654
제주아리온승마장,제주특별자치도 서귀포시 안덕면 신화역사로403번길 79,제주특별자치도 서귀포시 안덕면 동광리 1391,33.3109934,126.3339971
제주아세안홀,제주특별자치도 서귀포시 중문관광로 227-24,제주특별자치도 서귀포시 중문동 2571,33.2451831,126.4214230
제주아트서커스,제주특별자치도 서귀포시 안덕면 동광로 214,제주특별자치도 서귀포시 안덕면 동광리 886,33.3144092,126.3448588
제주아트센터,제주특별자치도 제주시 오남로 231,제주특별자치도 제주시 오라이동 898-8,33.4750610,126.5155220
제주안전체험관,제주특별자치도 제주시 애월읍 평화로 1885,제주특별자치도 제주시 애월읍 어음리 41-4,33.3941330,126.3734284
제주양떼목장,제주특별자치도 제주시 애월읍 도치돌길 289-13,제주특별자치도 제주시 애월읍 납읍리 114,33.4113533,126.3652170
제주어울림감귤체험농장,제주특별자치도 서귀포시 성산읍 서성일로 809,제주특별자치도 서귀포시 성산읍 수산리 1948,33.4362765,126.8672355
제주여가마을,제주특별자치도 제주시 조천읍 조와로 360,제주특별자치도 제주시 조천읍 와흘리 1480-2,33.5045478,126.6357866
제주오렌지,제주특별자치도 서귀포시 남원읍 서성로 684-5,제주특별자치도 서귀포시 남원읍 한남리 산5-7,33.3257288,126.6696078
제주오름승마랜드,조천읍 번영로 1734-15,제주특별자치도 제주시 조천읍 선흘리 454-1,33.4489793,126.7134486
제주올레 1-1코스,제주특별자치도 제주시 우도면 연평리 2473-1,제주특별자치도 제주시 우도면 연평리 2473-1,33.5058030,126.9416634
제주올레 10-1코스,제주특별자치도 서귀포시 대정읍 가파리 298,제주특별자치도 서귀포시 대정읍 가파리 298,33.1701027,126.2696168
제주올레 10코스,제주특별자치도 서귀포시 대정읍 상모리 산 2-27,제주특별자치도 서귀포시 대정읍 상모리 산 2-27,33.2016734,126.2874615
제주올레 11코스,제주특별자치도 서귀포시 대정읍 동일리 3168,명제주특별자치도 서귀포시 대정읍 대한로 15-1,33.2439446,126.2448764
제주올레 12코스,제주특별자치도 서귀포시 대정읍 신도리 2883-2,제주특별자치도 서귀포시 대정읍 신도리 2883-2,33.2863550,126.1715136
제주올레 13코스,제주특별자치도 제주시 한경면 조수리 2137-2,제주특별자치도 제주시 한경면 조수리 2137-2,33.3288366,126.2121636
제주올레 14-1코스,제주특별자치도 서귀포시 안덕면 서광리 산 50-22,제주특별자치도 서귀포시 안덕면 서광리 산 50-22,33.3049630,126.2887065
제주올레 14코스,제주특별자치도 제주시 한림읍 월령리 산 9-15,제주특별자치도 제주시 한림읍 월령리 산 9-15,33.3712358,126.2247607
제주올레 15-A코스,제주특별자치도 제주시 애월읍 납읍리 2695-5,제주특별자치도 제주시 애월읍 납읍리 2695-5,33.4302170,126.3192700
제주올레 15-B코스,제주특별자치도 제주시 한림읍 한림해안로 192,제주특별자치도 제주시 한림읍 대림리 2019-17,33.4190627,126.2625620
제주올레 16코스,제주특별자치도 제주시 애월읍 고내리 1111-2,제주특별자치도 제주시 애월읍 고내리 1111-2,33.4668978,126.3378493
제주올레 17코스,제주특별자치도 제주시 도두1동 2612-1,제주특별자치도 제주시 도두1동 2612-1,33.5052141,126.4678939
제주올레 18-1코스,제주특별자치도 제주시 추자면 묵리 산 133,제주특별자치도 제주시 추자면 묵리 산 133,33.9518959,126.3075004
제주올레 18코스,제주특별자치도 제주시 삼양1동 1131-2,제주특별자치도 제주시 삼양1동 1131-2,33.5286314,126.5963048
제주올레 19코스,제주특별자치도 제주시 조천읍 조천리 1142,제주특별자치도 제주시 조천읍 조천리 1142,33.5406336,126.6422168
제주올레 1코스,제주특별자치도 서귀포시 성산읍 오조리 396-1,제주특별자치도 서귀포시 성산읍 오조리 396-1,33.4719808,126.9149494
제주올레 20코스,제주특별자치도 제주시 구좌읍 행원동길 22,제주특별자치도 제주시 구좌읍 행원리 768,33.5541315,126.8114049
제주올레 21코스,제주특별자치도 제주시 구좌읍 하도리 3204-1,제주특별자치도 제주시 구좌읍 하도리 3204-1,33.5226738,126.8643107
제주올레 2코스,제주특별자치도 서귀포시 성산읍 고성리 2563-3,제주특별자치도 서귀포시 성산읍 고성리 2563-3,33.4335997,126.8969619
제주올레 3코스,제주특별자치도 서귀포시 표선면 하천리 87-1,제주특별자치도 서귀포시 표선면 하천리 87-1,33.3335448,126.8445194
제주올레 4코스,제주특별자치도 서귀포시 남원읍 태흥리 200-2,제주특별자치도 서귀포시 남원읍 태흥리 200-2,33.2998090,126.7535887
제주올레 5코스,제주특별자치도 서귀포시 남원읍 남태해안로 140,제주특별자치도 서귀포시 남원읍 남원리 91-6,33.2778173,126.7196046
제주올레 6코스,제주특별자치도 서귀포시 보목동 1377-4,제주특별자치도 서귀포시 보목동 1377-4,33.2371165,126.5960147
제주올레 7-1코스,제주특별자치도 서귀포시 서호동 553-1,제주특별자치도 서귀포시 서호동 553-1,33.2678276,126.5200865
제주올레 7코스,제주특별자치도 서귀포시 서홍동 795-1,명제주특별자치도 서귀포시 남성로 62,33.2405043,126.5480863
제주올레 8코스,제주특별자치도 서귀포시 예래해안로 256,제주특별자치도 서귀포시 하예동 532-3,33.2365477,126.3887536
제주올레 9코스,제주특별자치도 서귀포시 안덕면 감산리 982-2,제주특별자치도 서귀포시 안덕면 감산리 982-2,33.2371098,126.3612740
제주용암수 홍보관,제주특별자치도 제주시 구좌읍 일주동로 2706-27 (한동리) 오리온 제주용암수,제주특별자치도 제주시 구좌읍 한동리 4849-18,33.5408003,126.8138566
제주우리병원,제주특별자치도 제주시 중앙로 373,제주특별자치도 제주시 이도이동 1986-3,33.4889664,126.5396637
제주워터월드,제주특별자치도 서귀포시 월드컵로 33,제주특별자치도 서귀포시 법환동 914,33.2462600,126.5091903
제주유리박물관,제주특별자치도 서귀포시 중산간서로 1403,제주특별자치도 서귀포시 상예동 4303,33.2784681,126.3701315
제주유리의성,제주특별자치도 제주시 한경면 녹차분재로 462,제주특별자치도 제주시 한경면 저지리 3135-1 유리의 성,33.3146325,126.2736668
제주인디,제주특별자치도 서귀포시 성산읍 중산간동로 4150-30,제주특별자치도 서귀포시 성산읍 삼달리 1010,33.3832875,126.8415364
제주잠수함(국제리더스클럽),제주특별자치도 제주시 조천읍 조함해안로 321-21,제주특별자치도 제주시 조천읍 신흥리 1-11,33.5515339,126.6524772
제주절물자연휴양림,제주특별자치도 제주시 명림로 584,제주특별자치도 제주시 봉개동 산78-1,33.4400577,126.6251975
제주제트,제주특별자치도 서귀포시 대포로 172-5,제주특별자치도 서귀포시 대포동 2184-10,33.2384179,126.4394650
제주조천스위스마을,제주특별자치도 제주시 조천읍 함와로 566-27,제주특별자치도 제주시 조천읍 와산리 1559-18,33.4939080,126.6767815
제주중앙성당,제주특별자치도 제주시 관덕로8길 14,제주특별자치도 제주시 삼도이동 114,33.5120283,126.5232063
제주쥬티클럽,제주특별자치도 서귀포시 성산읍 신양로 113,제주특별자치도 서귀포시 성산읍 고성리 206-7,33.4367668,126.9220608
제주참숯가마찜질방,제주특별자치도 서귀포시 성산읍 삼달로 47,제주특별자치도 서귀포시 성산읍 삼달리 124-3,33.3689843,126.8633089
제주추사관,제주특별자치도 서귀포시 대정읍 추사로 44,제주특별자치도 서귀포시 대정읍 안성리 1661-1,33.2497863,126.2784971
제주친구,제주특별자치도 서귀포시 동홍로 149,제주특별자치도 서귀포시 동홍동 1255-2,33.2617776,126.5670884
제주카약,제주특별자치도 제주시 조천읍 평사길 19,제주특별자치도 제주시 조천읍 함덕리 206-1,33.5438655,126.6739809
제주카트클럽,제주특별자치도 제주시 한림읍 중산간서로 3853,제주특별자치도 제주시 한림읍 월림리 341-2,33.3477236,126.2560032
제주커피박물관 바움 Baum,제주특별자치도 서귀포시 성산읍 서성일로1168번길 89-17,제주특별자치도 서귀포시 성산읍 고성리 2040-1,33.4398657,126.8991545
제주컨트리클럽,제주특별자치도 제주시 영평동 2263-5,제주특별자치도 제주시 영평동 2263-5,33.4303675,126.5822759
제주특별자치도 도립미술관,제주특별자치도 제주시 1100로 2894-78,제주특별자치도 제주시 연동 680-7 제주도립미술관,33.4525491,126.4895815
제주펫,제주특별자치도 서귀포시 남원읍 한신로531번길 22-3,제주특별자치도 서귀포시 남원읍 신흥리 1759-3,33.3203989,126.7453134
제주평화박물관(전쟁평화박물관)[휴관중],제주특별자치도 제주시 한경면 청수서5길 63,제주특별자치도 제주시 한경면 청수서5길 63,33.3058186,126.2495481
제주플래티늄카라반,제주특별자치도 제주시 애월읍 하귀미수포길 5-8,제주특별자치도 제주시 애월읍 하귀미수포길 5-8,33.4834618,126.4013788
제주하늘을날다(패러글라이딩),제주특별자치도 제주시 도남로17길 32 영산홍아파트 가동,제주특별자치도 제주시 도남동 78 영산홍아파트,33.4912863,126.5317364
제주한라병원,제주특별자치도 제주시 도령로 65,제주특별자치도 제주시 연동 1963-2,33.4899610,126.4850403
제주항공우주박물관,제주특별자치도 서귀포시 안덕면 녹차분재로 218 항곡우주박물관,제주특별자치도 서귀포시 안덕면 서광리 산39 제주항공우주박물관,33.3043418,126.2996189
제주항일기념관,제주특별자치도 제주시 조천읍 신북로 303,제주특별자치도 제주시 조천읍 조천리 1156 제주항일기념관,33.5411248,126.6406638
제주해양동물박물관,제주특별자치도 서귀포시 성산읍 서성일로 689-21,제주특별자치도 서귀포시 성산읍 수산리 3233,33.4294862,126.8551275
제주해양레저,제주특별자치도 서귀포시 중문관광로 192,제주특별자치도 서귀포시 중문동 2785-2,33.2432311,126.4190029
제주해양레저파크,제주특별자치도 제주시 조천읍 조함해안로 519-10,제주특별자치도 제주시 조천읍 함덕리 1008-1,33.5437098,126.6687041
제주해양사업단,제주특별자치도서귀포시대정읍최남단해안로 130,제주특별자치도 서귀포시 대정읍 하모리 646-20,33.2104401,126.2575085
제주햇살농원,제주특별자치도 제주시 조천읍 북선로 189,제주특별자치도 제주시 조천읍 선흘리 3530-1,33.5233216,126.6878955
제주향교,제주특별자치도 제주시 서문로 43,제주특별자치도 제주시 용담일동 298-8 제주향교,33.5111563,126.5155867
제주허브동산,제주특별자치도 서귀포시 표선면 돈오름로 170,제주특별자치도 서귀포시 표선면 표선리 2608,33.3291241,126.8147261
제주현대미술관,제주특별자치도 제주시 한경면 저지14길 35,제주특별자치도 제주시 한경면 저지14길 35,33.3399654,126.2658375
조은승마장,제주특별자치도 서귀포시 안덕면 동광로 265-14,제주특별자치도 서귀포시 안덕면 동광리 897-2,33.3182965,126.3451270
지포뮤지엄,제주특별자치도 서귀포시 성산읍 섭지코지로 107,제주특별자치도 서귀포시 성산읍 고성리 127-2 휘닉스아일랜드콘도,33.4302921,126.9293643
참굴비조형물,제주특별자치도 제주시 추자면 묵리 산 131-1,제주특별자치도 제주시 추자면 묵리 산 131-1,33.9526474,126.3042804
청초밭영농조합법인,제주특별자치도 서귀포시 표선면 성읍이리로57번길 34,제주특별자치도 서귀포시 표선면 성읍리 2497,33.4184705,126.7799902
제주홀스타승마장,제주특별자치도 제주시 산록북로 8,제주특별자치도 제주시 연동 산146-19,33.4223673,126.4938621
조은동물병원,제주특별자치도 서귀포시 동문로 40,제주특별자치도 서귀포시 서귀동 270-7,33.2502652,126.5649142
중문레져UTV,제주특별자치도 서귀포시 산록남로 1578,제주특별자치도 서귀포시 대포동 산38-2,33.2913235,126.4563788
추억애거리,제주특별자치도 제주시 도공로 3-3,제주특별자치도 제주시 도두일동 2630-1,33.5059850,126.4656941
추자도,제주특별자치도 제주시 추자면 추자도,제주특별자치도 제주시 추자면 추자도,,
추자도 숭어체험장,제주특별자치도 제주시 추자면 석두리길 4,제주특별자치도 제주시 추자면 신양리 874-11,33.9399501,126.3234772
추자도등대,제주특별자치도 제주시 추자면 영흥4길 43,제주특별자치도 제주시 추자면 영흥리 75,33.9578904,126.2982695
추자등대,제주특별자치도 제주시 추자면 영흥리 77-3,제주특별자치도 제주시 추자면 영흥리 77-3,33.9559426,126.2973454
추자연도교,제주특별자치도 제주시 추자면 영흥리 97-3,제주특별자치도 제주시 추자면 영흥리 97-3,33.9541160,126.3022314
취다선리조트,제주특별자치도 서귀포시 성산읍 해맞이해안로 2688,제주특별자치도 서귀포시 성산읍 오조리 398-10,33.4718231,126.9126814
칠머리길,제주특별자치도 제주시 칠머리길 1,제주특별자치도 제주시 건입동 956-16,33.5170516,126.5358034
카멜리아힐,제주 서귀포시 안덕면 병악로 166,제주특별자치도 서귀포시 안덕면 상창리 271,33.2901402,126.3683652
카카오본사(구 스페이스닷원),제주특별자치도 제주시 첨단로 242,제주특별자치도 제주시 영평동 2181,33.4506913,126.5706148
카카오패밀리 로이인더정글카밀라스,제주특별자치도 제주시 구좌읍 구좌로 60,제주특별자치도 제주시 구좌읍 세화리 1413-2,33.5226239,126.8574962
캐니언파크,제주특별자치도 제주시 삼무로 51,제주특별자치도 제주시 연동 281-20,33.4902200,126.4923597
캐릭파크,제주특별자치도 제주시 조천읍 선교로 266,제주특별자치도 제주시 조천읍 선흘리 2019-3,33.4792795,126.7005448
캔디원,제주특별자치도 제주시 조천읍 선교로 384,제주특별자치도 제주시 조천읍 선흘리 1776,33.4712945,126.7077518
캘리그라피 오월,제주특별자치도 제주시 오남로 90,제주특별자치도 제주시 오라이동 959-1,33.4877756,126.5175182
캣츠앤독스,제주특별자치도 서귀포시 태평로 488,제주특별자치도 서귀포시 동홍동 382-1,33.2489611,126.5709789
케이제주씨워킹,제주특별자치도 서귀포시 대정읍 최남단해안로 120,제주특별자치도 서귀포시 대정읍 하모리 646-20,33.2100651,126.2583797
케이제주해양사업단,제주특별자치도 서귀포시 대정읍 최남단해안로 116,제주특별자치도 서귀포시 대정읍 하모리 648-3,33.2114915,126.2561497
코기절미,제주특별자치도 제주시 1100로 3198-20,제주특별자치도 제주시 노형동 82-2,33.4729489,126.4858159
코코몽 에코파크,제주특별자치도 서귀포시 남원읍 태위로 536,제주특별자치도 서귀포시 남원읍 남원리 2380,33.2751616,126.7082070
쿠키네,제주특별자치도 제주시 애월읍 일주서로 6689,제주특별자치도 제주시 애월읍 신엄리 1280-15,33.4714155,126.3668116
쿠킹독,제주특별자치도 제주시 연북로 41,제주특별자치도 제주시 노형동 722-2,33.4823142,126.4858458
큰넓궤,제주특별자치도 서귀포시 안덕면 동광리 90 일대,제주특별자치도 서귀포시 안덕면 동광리 90 일대,33.3102639,126.3575988
큰노꼬메오름,제주특별자치도 제주시 애월읍 유수암리 산 138,제주특별자치도 제주시 애월읍 유수암리 산 138,33.3922064,126.4158181
큰바리메오름,제주특별자치도 제주시 애월읍 어음리 산 21,제주특별자치도 제주시 애월읍 어음리 산 21,33.3776519,126.3870798
큰사슴이오름,제주특별자치도 서귀포시 표선면 중산간동로,제주 서귀포시 표선면 가시리 산68,,
클럽나인브릿지,제주특별자치도 서귀포시 안덕면 광평로 34-156,제주특별자치도 서귀포시 안덕면 광평리 산15,33.3403726,126.4042502
키아나 요가,제주특별자치도 서귀포시 안덕면 사계남로50번길 1,제주특별자치도 서귀포시 안덕면 사계리 2347-1,33.2271856,126.2956485
타오하우스,제주특별자치도 제주시 도두봉6길 9-1,제주특별자치도 제주시 도두일동 1700-8,33.5082517,126.4723689
탐나라공화국(제주남이섬),제주특별자치도 제주시 한림읍 한창로 897,제주특별자치도 제주시 한림읍 금악리 81-8,33.3345115,126.3256922
탐라승마장,제주특별자치도 제주시 조천읍 비자림로 1044,제주특별자치도 제주시 조천읍 교래리 42-3,33.4330322,126.7169426
탑동,제주특별자치도 제주시 중앙로 2,제주특별자치도 제주시 삼도이동 1262,33.5179236,126.5242565
탑동해변공연장,제주특별자치도 제주시 중앙로 2,제주특별자치도 제주시 삼도이동 1262,33.5179236,126.5242565
태웃개,제주특별자치도 서귀포시 남원읍 태위로398번길 57,제주특별자치도 서귀포시 남원읍 위미리 70-1,33.2706577,126.6909318
태흥포구,제주특별자치도 서귀포시 남원읍 태흥리,제주특별자치도 서귀포시 남원읍 태흥리,33.293,126.7429
터진목 & 성산면 4·3희생자 위령비,제주특별자치도 서귀포시 성산읍 일출로 88-19,제주특별자치도 서귀포시 성산읍 고성리 224-1,33.4499536,126.9223359
테디베어뮤지엄제주,제주특별자치도 서귀포시 중문관광로110번길 31,제주특별자치도 서귀포시 색달동 2889,33.2503670,126.4121620
테디베어사파리 테지움,제주특별자치도 제주시 애월읍 평화로 2159,제주특별자치도 제주시 애월읍 소길리 155-106,33.4121614,126.3936509
테우마을 수원리 농어촌체험마을,제주시 한림읍 한림해안로 274,제주특별자치도 제주시 한림읍 수원리 725-1,33.4255801,126.2645913
텐타임즈,제주특별자치도 서귀포시 이어도로 826-51,제주특별자치도 서귀포시 강정동 750,33.2324473,126.5001906
토끼섬,제주특별자치도 제주시 구좌읍 하도리,제주특별자치도 제주시 구좌읍 하도리,33.514383,126.886425
토산봉(망오름),제주특별자치도 서귀포시 표선면 토산리 산 13,제주특별자치도 서귀포시 표선면 토산리 산 13,33.3224749,126.7737252
토이레저,제주특별자치도 서귀포시 안덕면 동광로 267-7,제주특별자치도 서귀포시 안덕면 동광리 383,33.3189781,126.3453633
토이승마장,제주특별자치도 서귀포시 안덕면 동광로 265-14,제주특별자치도 서귀포시 안덕면 동광리 897-2,33.3182965,126.3451270
토이파크,제주특별자치도 서귀포시 안덕면 동광로 267-7,제주특별자치도 서귀포시 안덕면 동광리 383,33.3189781,126.3453633
토종닭유통특구교래삼다수마을,제주특별자치도 제주시 조천읍 교래리,제주특별자치도 제주시 조천읍 교래리,33.431457,126.676582
톨칸이,제주특별자치도 제주시 우도면 연평리 1732-1,제주특별자치도 제주시 우도면 연평리 1732-1,33.4920227,126.9544525
통오름,제주특별자치도 서귀포시 성산읍 신산리 1754-1,제주특별자치도 서귀포시 성산읍 신산리 1754-1,33.3923293,126.8542006
통일관,제주특별자치도 제주시 삼성로 46,제주특별자치도 제주시 일도이동 968-2,33.5067314,126.5308110
튼튼동물병원,제주특별자치도 제주시 중앙로 351,제주특별자치도 제주시 이도이동 1987-14,33.4905642,126.5380155
팀케이,제주특별자치도 제주시 고사마루길 67-4,제주특별자치도 제주시 노형동 2239-1,33.4753141,126.4730085
파군봉(바굼지오름),제주특별자치도 제주시 애월읍 하귀1리 688-1,제주특별자치도 제주시 애월읍 하귀1리 688-1,33.4790724,126.4123019
파더스가든,제주특별자치도 서귀포시 안덕면 병악로 44-33,제주특별자치도 서귀포시 안덕면 상창리 804,33.2801127,126.3647296
파인더웨이브,제주특별자치도 제주시 애월읍 일주서로 6079,제주특별자치도 제주시 애월읍 곽지리 1549-1,33.4534518,126.3086970
파파빌레,제주특별자치도 제주시 조천읍 남조로 2185,제주특별자치도 제주시 조천읍 와흘리 165-8,33.4605019,126.6611099
"판포오름 (널개오름, 板浦岳)",제주특별자치도 제주시 한경면 판포리 934,제주특별자치도 제주시 한경면 판포리 934,33.3578707,126.2125257
판포포구,제주특별자치도 제주시 한경면 판포리 2877-3,제주특별자치도 제주시 한경면 판포리 2877-3,33.3654080,126.1996046
퍼시픽 마리나 요트투어,제주특별자치도 서귀포시 중문관광로 154-17,제주특별자치도 서귀포시 색달동 2950-17,33.2450404,126.4155991
퍼피홀릭,제주특별자치도 제주시 승천로 81,제주특별자치도 제주시 아라이동 3003-10,33.4918437,126.5435433
펫소풍,제주특별자치도 서귀포시 안덕면 화순서서로 458,제주특별자치도 서귀포시 안덕면 서광리 2188-1,33.2827826,126.3048302
펫플러스,제주특별자치도 제주시 신광로 52,제주특별자치도 제주시 연동 262-4,33.4874325,126.4896166
편백포레스트,제주특별자치도 서귀포시 남원읍 서성로 544-97,제주특별자치도 서귀포시 남원읍 한남리 산18,33.3174795,126.6596901
평대리불턱,제주특별자치도 제주시 구좌읍 해맞이해안로 1240-3,제주특별자치도 제주시 구좌읍 평대리 515-67,33.5324704,126.8462648
평대리해변,제주특별자치도 제주시 구좌읍 평대리 515-24,제주특별자치도 제주시 구좌읍 평대리 515-24,33.5323131,126.8480380
평대해변,제주특별자치도 제주시 구좌읍 평대리 1994-20,제주특별자치도 제주시 구좌읍 평대리 1994-20,33.5332099,126.8405828
평수포구,제주특별자치도 제주시 한림읍 한림해안로 297-1,제주특별자치도 제주시 한림읍 수원리 952,33.4276303,126.2636330
평화통일 불사리탑,제주특별자치도 제주시 조천읍 일주동로 884,제주특별자치도 제주시 조천읍 조천리 2268-1,33.5314999,126.6368868
포레스트 사파리,제주특별자치도 제주시 조천읍 선교로 474-1,제주특별자치도 제주시 조천읍 선흘리 1817,33.4630625,126.7095693
포브독,제주특별자치도 제주시 연북로 74,제주특별자치도 제주시 연동 1371-3,33.4815318,126.4891752
포토갤러리 자연사랑미술관,제주특별자치도 서귀포시 표선면 가시리 1920-1,제주특별자치도 서귀포시 표선면 가시리 1920-1,33.3546800,126.7720871
표선세화해안도로,제주특별자치도 서귀포시 표선면 표선리,제주특별자치도 서귀포시 표선면 표선리,33.324017,126.82795
표선해수욕장,제주특별자치도 서귀포시 표선면 표선리,제주특별자치도 서귀포시 표선면 표선리,33.324017,126.82795
푸른콩 방주영농조합법인,제주특별자치도 서귀포시 중산간서로 740(중문동),제주특별자치도 서귀포시 중문동 1226,33.2632439,126.4361259
풋감마을 소길리 농어촌체험마을,제주시 애월읍 소길1길 15,제주특별자치도 제주시 애월읍 소길리 650-1,33.4400527,126.3798773
퓸퓸몽,제주특별자치도 제주시 신설로2길 5-17,제주특별자치도 제주시 이도이동 1970-6,33.4954834,126.5425446
플레이박스VR,제주특별자치도 제주시 은수길 69,제주특별자치도 제주시 연동 1320,33.4706602,126.4879244
피규어뮤지엄 제주,제주특별자치도 서귀포시 안덕면 한창로 243,제주특별자치도 서귀포시 안덕면 상창리 1875-8,33.2818686,126.3552564
피크닉메이트,제주특별자치도 제주시 아란4길 84,제주특별자치도 제주시 아라일동 6061-5,33.4701665,126.5415060
핀크스 골프클럽,제주특별자치도 서귀포시 안덕면 산록남로 863,제주특별자치도 서귀포시 안덕면 상천리 산62-3,33.3153157,126.3885723
필코 스튜디오,제주특별자치도 제주시 한경면 저지12길 62-5 (저지리),제주특별자치도 제주시 한경면 저지리 3265-6,33.3383421,126.2631157
하고수동해변,제주특별자치도 제주시 우도면 연평리,제주특별자치도 제주시 우도면 연평리,33.5075,126.9549
하논마르,제주특별자치도 서귀포시 서홍동 1003,제주특별자치도 서귀포시 서홍동 1003,33.2529498,126.5457349
하도 어촌 체험 마을,제주특별자치도 제주시 구좌읍 해맞이해안로 1897-27,제주특별자치도 제주시 구좌읍 하도리 22-10,33.5200328,126.9040561
하도리 철새도래지,제주특별자치도 제주시 구좌읍 하도리 53-2,제주특별자치도 제주시 구좌읍 하도리 53-2,33.5104154,126.8963126
하도어촌체험마을,제주특별자치도 제주시 구좌읍 해맞이해안로 1897-27,제주특별자치도 제주시 구좌읍 하도리 22-10,33.5200328,126.9040561
하도해변,제주특별자치도 제주시 구좌읍 해맞이해안로,제주 제주시 구좌읍 하도리,,
하례감귤점빵협동조합,제주특별자치도 서귀포시 남원읍 하례로 272,제주특별자치도 서귀포시 남원읍 하례리 738-12,33.2713433,126.6233403
하례점빵,제주특별자치도 서귀포시 남원읍 하례로 272,제주특별자치도 서귀포시 남원읍 하례리 738-12,33.2713433,126.6233403
하멜기념비,제주특별자치도 서귀포시 안덕면 사계리 112-3,제주특별자치도 서귀포시 안덕면 사계리 112-3,33.2334804,126.3146170
하모돌고래투어,제주특별자치도 서귀포시 대정읍 최남단해안로 120,제주특별자치도 서귀포시 대정읍 하모리 646-20,33.2100651,126.2583797
하예포구(예래포구),제주특별자치도 서귀포시 하예동,제주특별자치도 서귀포시 하예동,33.2394,126.3804
하효살롱 협동조합,제주특별자치도 서귀포시 효돈순환로 217-8,제주특별자치도 서귀포시 하효동 967-1,33.2565184,126.6217423
한국건강관리협회제주특별자치도부,제주특별자치도 제주시 연북로 111,제주특별자치도 제주시 연동 1375,33.4820781,126.4933151
한국병원,제주특별자치도 제주시 서광로 193,제주특별자치도 제주시 삼도일동 518,33.5002330,126.5170620
한국야구명예전당(야구박물관),제주특별자치도 서귀포시 중산간서로 97-1,제주특별자치도 서귀포시 강정동 1481-3,33.2605483,126.4985254
한남의숙터,제주특별자치도 서귀포시 대정읍 추사로,제주특별자치도 서귀포시 대정읍 안성리,,
한담해변,제주특별자치도 제주시 애월읍 애월로1길 26-4,제주특별자치도 제주시 애월읍 애월리 2533-1,33.4627538,126.3100966
한동환해장성,제주특별자치도 제주시 구좌읍 해맞이해안로 858-1,제주특별자치도 제주시 구좌읍 행원리 106,33.5515891,126.8273540
한라동물종합병원,제주특별자치도 제주시 고마로 37,제주특별자치도 제주시 일도이동 321-10,33.5108672,126.5390471
한라산 아래 첫 마을,제주특별자치도 서귀포시 안덕면 광평로 41,제주특별자치도 서귀포시 안덕면 광평리 195-2,33.3295792,126.3812297
한라산국립공원,제주특별자치도 제주시 1100로 2070-61,제주특별자치도 제주시 해안동 산220-13,33.3926876,126.4948419
한라산소주공장,제주특별자치도 제주시 한림읍 한림로 555,제주특별자치도 제주시 한림읍 옹포리 396,33.4077661,126.2561229
한라산어리목코스,제주특별자치도 제주시 1100로 2070-61,제주특별자치도 제주시 해안동 산220-13,33.3926876,126.4948419
한라산영실코스,제주특별자치도 서귀포시 영실로 246,제주특별자치도 서귀포시 하원동 산1-1,33.3401088,126.4805166
한라생태숲,제주특별자치도 제주시 516로 2596,제주특별자치도 제주시 용강동 산14-1,33.4310909,126.6005344
한라수목원,제주특별자치도 제주시 수목원길 72,제주특별자치도 제주시 연동 1012,33.4697410,126.4921380
한라승마장,제주특별자치도 서귀포시 안덕면 평화로 1078,제주특별자치도 서귀포시 안덕면 동광리 산32-2,33.3248074,126.3527368
한라의향기,제주특별자치도 서귀포시 안덕면 병악로 58,제주특별자치도 서귀포시 안덕면 상창리 840,33.2811531,126.3638074
한림공원,제주특별자치도 제주시 한림읍 한림로 300(협재리),제주특별자치도 제주시 한림읍 협재리 2487,33.3902130,126.2397047
한림동물병원,제주특별자치도 제주시 한림읍 한림상로 114,제주특별자치도 제주시 한림읍 동명리 1597-7,33.4096373,126.2651262
한림바다체험마을,제주특별자치도 제주시 한림읍 한림해안로 200,제주특별자치도 제주시 한림읍 한수리 879-30,33.4197728,126.2627723
한림항,제주특별자치도 제주시 한림읍 한림해안로 192,제주특별자치도 제주시 한림읍 대림리 2019-17,33.4190627,126.2625620
한림해안도로,제주특별자치도 제주시 한림읍 귀덕리,제주특별자치도 제주시 한림읍 귀덕리,33.430793,126.291425
한모살 (표선백사장),제주특별자치도 제주시 표선면 표선리,제주특별자치도 제주시 표선면 표선리,,
한형수정원,제주특별자치도 제주시 한림읍 옹포2길 44,제주특별자치도 제주시 한림읍 협재리 1352,33.3969554,126.2498365
한화리조트 테라피센터,제주특별자치도 제주시 명림로 575-107 한화리조트 로비층 지하,제주특별자치도 제주시 회천동 3-16,33.4488639,126.6375149
함덕백사장 & 서우봉,제주특별자치도 제주시 조천읍 조함해안로 519-10,제주특별자치도 제주시 조천읍 함덕리 1008-1,33.5437098,126.6687041
함덕스쿠버,제주특별자치도 제주시 조천읍 조함해안로 376-11,제주특별자치도 제주시 조천읍 함덕리 3297,33.5472654,126.6570009
함덕야영장,제주특별자치도 제주시 조천읍 함덕리 1008,제주특별자치도 제주시 조천읍 함덕리 1008,33.5440210,126.6682567
함덕잠수함(이고제주),제주특별자치도 제주시 조천읍 조함해안로 378,제주특별자치도 제주시 조천읍 함덕리 3294,33.5477953,126.6568189
함덕카페거리,제주특별자치도 제주시 조천읍 함덕리,제주특별자치도 제주시 조천읍 함덕리,33.534575,126.66015
함덕해수욕장,제주특별자치도 제주시 조천읍 조함해안로 525,제주특별자치도 제주시 조천읍 함덕리 1004-10,33.5427890,126.6705232
항파두리항몽유적지,제주특별자치도 제주시 애월읍 항파두리로 50,제주특별자치도 제주시 애월읍 상귀리 1012,33.4532024,126.4076561
해거름전망대,제주특별자치도 제주시 한경면 일주서로 4641,제주특별자치도 제주시 한경면 판포리 1462-2,33.3712812,126.2072623
해녀박물관,제주특별자치도 제주시 구좌읍 해녀박물관길 26,제주특별자치도 제주시 구좌읍 상도리 3204-1,33.5235990,126.8633984
해녀의 태왁,제주특별자치도 제주시 구좌읍 김송로 94,제주특별자치도 제주시 구좌읍 김녕리 904-4,33.5429296,126.7545546
해맑은동물병원,제주특별자치도 제주시 한라대학로 75,제주특별자치도 제주시 노형동 759,33.4765157,126.4783677
해맞이해안로,제주특별자치도 제주시 구좌읍 김녕리,제주특별자치도 제주시 구좌읍 김녕리,33.550392,126.742713
해비치컨트리클럽제주,제주특별자치도 서귀포시 남원읍 원님로 399번길 319,제주특별자치도 서귀포시 남원읍 신흥리 산30,33.3623095,126.7218982
해빛,제주특별자치도 제주시 조천읍 신촌9길 8,제주특별자치도 제주시 조천읍 신촌리 1899-1,33.5353318,126.6222250
해빛다이브,제주특별자치도 서귀포시 칠십리로 123,제주특별자치도 서귀포시 서귀동 42,33.2430548,126.5675837
해품은체험농장,제주특별자치도 서귀포시 성산읍 서성일로 1078-14,제주특별자치도 서귀포시 성산읍 수산리 225,33.4433118,126.8926395
해피맘하우스,제주특별자치도 제주시 애월읍 애월해안로 306-3,제주특별자치도 제주시 애월읍 고내리 448-2,33.4703783,126.3422478
해피애견놀이방,제주특별자치도 제주시 오라로1길 20-9,제주특별자치도 제주시 오라삼동 2238-5,33.4979903,126.5079383
핸즈웍스,제주특별자치도 제주시 한림읍 귀덕로 78,제주특별자치도 제주시 한림읍 귀덕리 756,33.4376279,126.2969320
행복공방 에치비,제주특별자치도 서귀포시 중산간서로 188,제주특별자치도 서귀포시 강정동 5628,33.2603879,126.4915896
행원육상양식단지,제주특별자치도 제주시 구좌읍 해맞이해안로 680-13,제주특별자치도 제주시 구좌읍 행원리 1-33,33.5596162,126.8163170
허브동산 미디어 파사드 (media facade),제주특별자치도 서귀포시 표선면 돈오름로 170,제주특별자치도 서귀포시 표선면 표선리 2608,33.3291241,126.8147261
헌마공신 김만일기념관,제주특별자치도 서귀포시 남원읍 서성로 919,제주특별자치도 서귀포시 남원읍 한남리 992,33.3361472,126.6907860
헬로키티아일랜드,제주특별자치도 서귀포시 안덕면 한창로 340,제주특별자치도 서귀포시 안덕면 상창리 1963-2,33.2900995,126.3520811
현사포구,제주특별자치도 제주시 이호1동,제주특별자치도 제주시 이호1동,33.4982,126.4586
현의합장묘역,제주특별자치도 서귀포시 남원읍 중산간동로 6242-56,제주특별자치도 서귀포시 남원읍 수망리 893,33.3277662,126.7016271
협자연대,제주특별자치도 서귀포시 성산읍 고성리 57-1,제주특별자치도 서귀포시 성산읍 고성리 57-1,33.4263444,126.9321389
협재굴(한림공원),제주특별자치도 제주시 한림읍 한림로 300,제주특별자치도 제주시 한림읍 협재리 2487,33.3902130,126.2397047
협재포구,제주특별자치도 제주시 한림읍 협재리,제주특별자치도 제주시 한림읍 협재리,33.3822,126.2498
협재해수욕장,제주특별자치도 제주시 한림읍 한림로 329-10,제주특별자치도 제주시 한림읍 협재리 2447,33.3937480,126.2394319
형제섬,제주특별자치도 서귀포시 안덕면 사계리 산 44,제주특별자치도 서귀포시 안덕면 사계리 산 44,33.2100081,126.3142694
형제해안도로,제주특별자치도 서귀포시 대정읍 상모리 1649-1,제주특별자치도 서귀포시 대정읍 상모리 1649-1,33.2009949,126.2801201
형제해안로전망대,제주특별자치도 서귀포시 안덕면 형제해안로 26,제주특별자치도 서귀포시 안덕면 사계리 2147-13,33.2278631,126.3037263
혼인지,제주특별자치도 서귀포시 성산읍 혼인지로 39-22,제주특별자치도 서귀포시 성산읍 온평리 1702-1,33.4149937,126.8947755
홀리데이 다이빙 코리아,제주특별자치도 서귀포시 칠십리로91번길 25,제주특별자치도 서귀포시 서귀동 688-5,33.2408423,126.5628217
화북비석거리,제주특별자치도 제주시  화북1동 4008,제주특별자치도 제주시  화북1동 4008,33.5212164,126.5599713
화북환해장성,제주특별자치도 제주시 화북동,제주특별자치도 제주시 화북동,33.520399,126.565428
화순곶자왈생태탐방숲길,제주특별자치도 서귀포시 안덕면 화순서동로 151,제주특별자치도 서귀포시 안덕면 화순리 2045-5,33.2634770,126.3323652
화순금모래해수욕장,제주특별자치도 서귀포시 안덕면 화순해안로 91,제주특별자치도 서귀포시 안덕면 화순리 776-7,33.2398451,126.3357776
화순금모래해수욕장담수수영장,제주특별자치도 서귀포시 안덕면 화순리 776-8,제주특별자치도 서귀포시 안덕면 화순리 776-8,33.2395872,126.3356605
화순리 유채꽃길,제주특별자치도 서귀포시 안덕면 화순리 1230-4,제주특별자치도 서귀포시 안덕면 화순리 1230-4,33.2517744,126.3338999
화조원,제주특별자치도 제주시 애월읍 애원로 804,제주특별자치도 제주시 애월읍 납읍리 58,33.4113253,126.3720224
환상숲 곶자왈공원,제주특별자치도 제주시 한경면 녹차분재로 594-1,제주특별자치도 제주시 한경면 저지리 2848-2,33.3226049,126.2632391
환상숲곶자왈 담앙족욕,제주특별자치도 제주시 한경면 녹차분재로 594-1,제주특별자치도 제주시 한경면 저지리 2848-2,33.3226049,126.2632391
황금굴(한림공원),제주특별자치도 제주시 한림읍 한림로 300,제주특별자치도 제주시 한림읍 협재리 2487,33.3902130,126.2397047
황우럭만화천국사회적협동조합,제주특별자치도 제주시 한림읍 내동남길 7-3,제주특별자치도 제주시 한림읍 한림리 1055,33.4142609,126.2665586
황우지해안,제주특별자치도 서귀포시 서홍동 766-1,제주특별자치도 서귀포시 서홍동 766-1,33.2415396,126.5497439
황우지해안 열두굴,제주특별자치도 서귀포시 서홍동 764-1,제주특별자치도 서귀포시 서홍동 764-1,33.2419446,126.5506956
효명사,제주특별자치도 서귀포시 남원읍 516로 815-41,제주특별자치도 서귀포시 남원읍 하례리 산45,33.3233196,126.5941465
후포해변,제주특별자치도 제주시 추자면 대서5길 87,제주특별자치도 제주시 추자면 대서리 267,33.9623394,126.2895689
훈데르트바서파크,제주특별자치도 제주시 우도면 우도해안길 32-12,제주특별자치도 제주시 우도면 연평리 2658,33.4931582,126.9557379
휘닉스 르쏠레이테라피,제주특별자치도 서귀포시 성산읍 섭지코지로 107 휘닉스제주아일랜드리조트 블루동 1층,제주특별자치도 서귀포시 성산읍 고성리 127-2,33.4302921,126.9293643
휴림,제주특별자치도 제주시 애월읍 광령남서길 40,제주특별자치도 제주시 애월읍 광령리 2873,33.4437993,126.4287941
휴애리 자연생활공원,"제주특별자치도 서귀포시 남원읍 신례동로 256 (신례리, 휴애리)",제주특별자치도 서귀포시 남원읍 신례리 2081,33.3085451,126.6344091
흑돼지거리,제주특별자치도 제주시 건입동,제주특별자치도 제주시 건입동,33.515029,126.531543
"그대, 나의 뮤즈 : 클림트 to 마티스",제주특별자치도 서귀포시 안덕면 신화역사로304번길 38 제주신화월드 서머셋클럽하우스,제주특별자치도 서귀포시 안덕면 서광리 산24,33.3053827,126.3173903
바당미술관,제주특별자치도 서귀포시 대정읍 노을해안로 96,제주특별자치도 서귀포시 대정읍 일과리 1924-4,33.2438623,126.2187034
우도보물섬레져,제주특별자치도 제주시 우도면 우도해안길 336,제주특별자치도 제주시 우도면 연평리 2427-3,33.5081590,126.9438206
동검은이오름(거미오름),제주특별자치도 제주시 구좌읍 종달리 산 70,제주특별자치도 제주시 구좌읍 종달리 산 70,33.4487593,126.8053368
백약이오름 [출입제한 - 자연휴식년제 적용 중],제주특별자치도 서귀포시 표선면 성읍리 산 1,제주특별자치도 서귀포시 표선면 성읍리 산 1,33.4372159,126.7901630
솔담현경철한의원,제주특별자치도 제주시 1100로 3055,제주특별자치도 제주시 노형동 241-1,33.4590435,126.4845726
송악산 [출입제한 - 자연휴식년제 적용 중],제주특별자치도 서귀포시 대정읍 송악관광로 421-1,제주특별자치도 서귀포시 대정읍 상모리 131,33.2077573,126.2908794
재밋섬파크,제주특별자치도 제주시 중앙로14길 18,제주특별자치도 제주시 삼도이동 108-13,33.5116016,126.5225566
헌마공신김만일기념관,서귀포시 남원읍 서성로 919,제주특별자치도 서귀포시 남원읍 한남리 992,33.3361472,126.6907860
돝오름(돗오름),제주특별자치도 제주시 구좌읍 송당리 산 3,제주특별자치도 제주시 구좌읍 송당리 산 3,33.4804864,126.7995126
제주러브랜드[휴업중],제주특별자치도 제주시 1100로 2894-72,제주특별자치도 제주시 연동 680-26,33.4518907,126.4888690
직접 내 손으로 채취할 수 있는 해산물이라구 <제주 바릇잡이 할 수 있는 포인트>,제주특별자치도 제주시 구좌읍 해맞이해안로 1897-27,제주특별자치도 제주시 구좌읍 하도리 22-10,33.5200328,126.9040561
큰엉해안경승지,제주특별자치도 서귀포시 남원읍 태위로 522-17,제주특별자치도 서귀포시 남원읍 남원리 2379-3,33.2733537,126.7036975
하멜상선전시관,제주특별자치도 서귀포시 안덕면 사계남로216번길 24-30,제주특별자치도 서귀포시 안덕면 사계리 116-7,33.2333898,126.3137108
한울랜드,제주특별자치도 제주시 구좌읍 동백로 458,제주특별자치도 제주시 구좌읍 덕천리 766,33.4971242,126.7504543
어승생승마장 Horseland Jeju,제주특별자치도 제주시 1100로 2659 (노형동),제주특별자치도 제주시 노형동 산14-1,33.4257598,126.4904093
용눈이오름 [출입제한 - 자연휴식년제 적용 중],제주특별자치도 제주시 구좌읍 종달논길,제주특별자치도 제주시 구좌읍 종달논길,,
월정리 카약체험장,제주특별자치도 제주시 구좌읍 일주동로 2361-2,제주특별자치도 제주시 구좌읍 월정리 1400-7,33.5509926,126.7819822
제주에코승마장(구.제주승마장),제주특별자치도 제주시 조천읍 교래리 39-3번지 (비자림로 1065),명제주특별자치도 제주시 조천읍 비자림로 1065,33.4343413,126.7181304
지니어스 로사이,제주특별자치도 서귀포시 성산읍 고성리 21,제주특별자치도 서귀포시 성산읍 고성리 21,33.4289660,126.9321373
퍼시픽 리솜 요트투어 샹그릴라,제주특별자치도 서귀포시 중문관광로 154-17,제주특별자치도 서귀포시 색달동 2950-17,33.2450404,126.4155991
포도갤러리 in 포도호텔,제주특별자치도 서귀포시 안덕면 산록남로 863 포도호텔 지하1층,제주특별자치도 서귀포시 안덕면 상천리 산62-3,33.3153157,126.3885723
하귀해안도로,제주 제주시 애월읍 고내리 445-3,제주 제주시 애월읍 고내리 445-3,33.4710336,126.3424325
하늘여행 행글라이더체험장,제주특별자치도 서귀포시 안덕면 중산간서로 1877,제주특별자치도 서귀포시 안덕면 서광리 775,33.2887740,126.3220579
하모씨워킹,제주특별자치도서귀포시대정읍최남단해안로 130,제주특별자치도 서귀포시 대정읍 하모리 646-20,33.2104401,126.2575085
해적잠수함,제주특별자치도 제주시 한경면 노을해안로 1146,제주특별자치도 제주시 한경면 고산리 3615-6,33.3082675,126.1644951
플레이네이쳐,서귀포시 안덕면 일주서로 1836,제주특별자치도 서귀포시 안덕면 덕수리 산27,33.2541720,126.3222987
뎁스원,제주특별자치도 제주시 한림읍 한림로 375,제주특별자치도 제주시 한림읍 협재리 1890,33.3962392,126.2432403
마린파크,제주특별자치도 서귀포시 안덕면 화순중앙로 132,제주특별자치도 서귀포시 안덕면 화순리 823,33.2408091,126.3347128
바람불어 좋은 날,제주특별자치도 서귀포시 안덕면 사계로 68,제주특별자치도 서귀포시 안덕면 사계리 2982-1,33.2371215,126.2978841
옷 귀마테마타운,제주특별자치도 서귀포시 남원읍 서성로 955-117,제주특별자치도 서귀포시 남원읍 한남리 1631-1,33.3404485,126.6834324
프랑스샤르망,제주시 한림읍 명상로 37,제주특별자치도 제주시 한림읍 명월리 384,33.3746280,126.2811076
로봇스퀘어[운영중단],제주특별자치도 제주시 구좌읍 해맞이해안로 1032,제주특별자치도 제주시 구좌읍 한동리 1294,33.5400112,126.8308583
번개과학체험관(폐업),제주특별자치도 서귀포시 토평공단로 78-27,제주특별자치도 서귀포시 토평동 1799,33.2895305,126.5888307
타보카 월정리투명카약,제주특별자치도 제주시 구좌읍 월정리 1400-4,제주특별자치도 제주시 구좌읍 월정리 1400-4,33.5634929,126.7801150
펌킨 펫하우스 제주신화월드,제주특별자치도 서귀포시 안덕면 신화역사로304번길 38,제주특별자치도 서귀포시 안덕면 서광리 산24,33.3053827,126.3173903
포핑요,제주특별자치도 제주시 아봉로 383,제주특별자치도 제주시 월평동 502-1,33.4702008,126.5761961
필라테스 로와,제주특별자치도 서귀포시 성산읍 신고로22번길 19 (고성리),제주특별자치도 서귀포시 성산읍 고성리 511-7,33.4372556,126.9190782
인투다이브,제주특별자치도 서귀포시 남성중로 169,제주특별자치도 서귀포시 서홍동 561-6,33.2468781,126.5526817
OK승마장,제주특별자치도 서귀포시 표선면 번영로 2595,제주특별자치도 서귀포시 표선면 성읍리 2422,33.4027748,126.7831939
minagrooming(미나그루밍),제주특별자치도 제주시 한림읍 한림해안로 116,제주특별자치도 제주시 한림읍 한림리 1589-4,33.4134760,126.2598866
가시림,제주특별자치도 서귀포시 표선면 녹산로5번길 171 (가시리),제주특별자치도 서귀포시 표선면 가시리 3275,33.3610266,126.7516155
가야금이 흐르는 제주,제주특별자치도 제주시 광양9길 27,제주특별자치도 제주시 이도이동 1175-5,33.5008497,126.5326385
감귤박물관 감귤따기 체험,제주특별자치도 서귀포시 효돈순환로 441,제주특별자치도 서귀포시 신효동 1200-6,33.2716170,126.6073620
그녀들의 글수다,제주특별자치도 제주시 주르레남길 25,제주특별자치도 제주시 해안동 35-114,33.4416230,126.4823574
그랜드스윙,제주특별자치도 서귀포시 성산읍 섭지코지로 107,제주특별자치도 서귀포시 성산읍 고성리 127-2,33.4302921,126.9293643
나드 보컬 스튜디오,제주특별자치도 제주시 중앙로 234-1,제주특별자치도 제주시 이도이동 1768-22,33.4987501,126.5301502
넌걸어난탈래,제주특별자치도 제주시 우도면 2395-5,제주특별자치도 제주시 우도면 2395-5,,
다이브맵,제주특별자치도 서귀포시 서호중앙로 55,제주특별자치도 서귀포시 서호동 1605,33.2525388,126.5186265
달중이네펫호텔,제주특별자치도 제주시 정존15길 20,제주특별자치도 제주시 노형동 1281-4,33.4869050,126.4776034
담화헌,제주특별자치도 제주시 주르레길 55,제주특별자치도 제주시 해안동 4,33.4494179,126.4805615
댕금님표수제간식,제주특별자치도 제주시 인다4길 41-12,제주특별자치도 제주시 아라일동 6152-7,33.4708188,126.5498902
댕댕스위트,제주특별자치도 제주시 애월읍 하귀9길 2,제주특별자치도 제주시 애월읍 하귀1리 117-1,33.4864159,126.4145637
동쪽송당 동화마을,제주특별자치도 제주시 구좌읍 비자림로 1191,제주특별자치도 제주시 구좌읍 송당리 2860,33.4354330,126.7320377
뒹굴개,제주특별자치도 제주시 삼무로 74,제주특별자치도 제주시 연동 292-10,33.4895793,126.4944503
드르쿰다인성산,제주특별자치도 서귀포시 성산읍 섭지코지로25번길 64,제주특별자치도 서귀포시 성산읍 고성리 372-1,33.4444699,126.9191113
들랑,제주특별자치도 제주시 관덕로4길 14-1,제주특별자치도 제주시 삼도이동 931-2,33.5118445,126.5214425
떠오르길,제주특별자치도 제주시 구좌읍 김녕로1길 51-3,제주특별자치도 제주시 구좌읍 김녕리 1352-3,33.5578456,126.7488146
라이더스랩,제주특별자치도 서귀포시 성산읍 중산간동로 4328-77 (삼달리) 라이더스랩,제주특별자치도 서귀포시 성산읍 삼달리 1768,33.3915126,126.8302432
라이프동물병원,제주특별자치도 제주시 노형3길 21-1,제주특별자치도 제주시 노형동 3794-6,33.4826454,126.4760057
루나폴,제주특별자치도 서귀포시 안덕면 일주서로 1836 루나폴,제주특별자치도 서귀포시 안덕면 덕수리 산27,33.2541720,126.3222987
마이애미함독카페,제주특별자치도 제주시 조천읍 남조로 3069,제주특별자치도 제주시 조천읍 조천리 1429-1,33.5331553,126.6424115
몽story,제주특별자치도 제주시 애월읍 하귀9길 34,제주특별자치도 제주시 애월읍 하귀1리 157-6,33.4840457,126.4160379
몽몽까까,제주특별자치도 제주시 도남로 189,제주특별자치도 제주시 아라일동 6034-5,33.4857160,126.5344816
미띠뽀,제주특별자치도 서귀포시 신서귀로 3,제주특별자치도 서귀포시 법환동 748-1,33.2496021,126.5097250
반치옥 사진관,제주특별자치도 제주시 애월읍 장전로 109-17,제주특별자치도 제주시 애월읍 장전리 332-3,33.4522011,126.3891577
베콩스,제주특별자치도 제주시 조천읍 신북로 479-2,제주특별자치도 제주시 조천읍 함덕리 1045,33.5435515,126.6616433
벨리타 캠핑장,제주특별자치도 제주시 조천읍 중산간동로 1194,제주특별자치도 제주시 조천읍 선흘리 2861-4,33.5080387,126.6978029
봉구의간식제주롯데마트점,제주특별자치도 제주시 연북로 1,제주특별자치도 제주시 노형동 708,33.4824320,126.4818509
블랙벨트 태권도장,제주특별자치도 제주시 정존5길 9 2층,제주특별자치도 제주시 노형동 2524-6,33.4834557,126.4740056
비케이브,제주특별자치도 제주시 조천읍 동백로 122,제주특별자치도 제주시 조천읍 선흘리 161-6,33.5084079,126.7199603
사려니팜,제주특별자치도 제주시 조천읍 남조로 1785-12 (교래리),제주특별자치도 제주시 조천읍 교래리 619,33.4274837,126.6721130
사월의 꿩,제주특별자치도 제주시 구좌읍 번영로 2178,제주특별자치도 제주시 구좌읍 송당리 2744-2,33.4279158,126.7509773
산방산유람선,제주특별자치도 서귀포시 안덕면 화순해안로106번길 16,제주특별자치도 서귀포시 안덕면 화순리 636-15,33.2370398,126.3352069
산양큰엉곶,제주특별자치도제주시 한경면 청수리 956-6,명제주특별자치도 제주시 한경면 연명로 179,33.2909370,126.2506774
삼화훈동물병원,제주특별자치도 제주시 동화로 12,제주특별자치도 제주시 화북일동 1221-13,33.5187716,126.5727080
생약누리,제주특별자치도 서귀포시 돈내코로 260 (상효동) 생약누리,제주특별자치도 서귀포시 상효동 2072,33.3074246,126.5716731
서귀포 강정 크루즈항,제주특별자치도 서귀포시 말질로 261,제주특별자치도 서귀포시 강정동 4665-1,33.2285191,126.4776049
서귀포유람선,제주특별자치도 서귀포시 남성중로 40,제주특별자치도 서귀포시 서홍동 707-5,33.2392101,126.5584133
서담채,제주특별자치도 제주시 1100로 3333,제주특별자치도 제주시 노형동 3784,33.4836142,126.4801422
서프서프,제주특별자치도 제주시 구좌읍 해맞이해안로 468,제주특별자치도 제주시 구좌읍 월정리 4-1,33.5553063,126.7966233
서피플,제주특별자치도 제주시 애월읍 곽지9길 21,제주특별자치도 제주시 애월읍 곽지리 1565-47,33.4515134,126.3070282
성산스쿠버리조트,제주특별자치도 서귀포시 성산읍 일출로 258-5,제주특별자치도 서귀포시 성산읍 성산리 143-4,33.4609297,126.9335840
성읍녹차동굴,제주특별자치도 서귀포시 표선면 중산간동로 4772,제주특별자치도 서귀포시 표선면 성읍리 2197,33.3818497,126.7910726
소암기념관,제주특별자치도 서귀포시 소암로 15,제주특별자치도 서귀포시 서귀동 157-1 소암현중화기념관,33.2451444,126.5675406
솔티 오렌지,제주특별자치도 서귀포시 성산읍 신산중앙로 36,제주특별자치도 서귀포시 성산읍 신산리 436,33.3784975,126.8786015
쇠소깍 전통 조각배 체험,제주특별자치도 서귀포시 쇠소깍로 104,제주특별자치도 서귀포시 하효동 990-1,33.2542468,126.6224067
쇠소깍해양레저타운,제주특별자치도 서귀포시 쇠소깍로 151-8 (하효동),제주특별자치도 서귀포시 하효동 999,33.2505587,126.6211783
숨도(구.석부작박물관),제주특별자치도 서귀포시 일주동로 8941 (호근동),제주특별자치도 서귀포시 호근동 569-2,33.2502899,126.5360074
슈몽슈몽,제주특별자치도 제주시 우정로18길 11,제주특별자치도 제주시 외도일동 642-7,33.4848387,126.4295994
슬리핑라이언,제주특별자치도 서귀포시 안덕면 화순서동로 151,제주특별자치도 서귀포시 안덕면 화순리 2045-5,33.2634770,126.3323652
신흥바다낚시공원(낚고락고),제주특별자치도 제주시 조천읍 조함해안로 247-2,제주특별자치도 제주시 조천읍 신흥리 711-1,33.5512632,126.6469430
아띠스떼21,제주특별자치도 서귀포시 안덕면 동광본동로 14-5,제주특별자치도 서귀포시 안덕면 동광리 968-3,33.3074636,126.3380399
아라i동물병원,제주특별자치도 제주시 인다6길 45,제주특별자치도 제주시 아라일동 6114-14,33.4751744,126.5480020
아라고나이트 고온천(디아넥스호텔),제주특별자치도 서귀포시 안덕면 산록남로762번길 71,제주특별자치도 서귀포시 안덕면 상천리 380-7,33.3030343,126.3923592
아랑조을거리,제주특별자치도 서귀포시 천지로 2,제주특별자치도 서귀포시 서귀동 341,33.2477589,126.5611189
아이존액트 볼링장,제주특별자치도 서귀포시 안덕면 신화역사로304번길 98,제주특별자치도 서귀포시 안덕면 서광리 산35-16,33.3065312,126.3075431
아일랜드 터프팅,"제주특별자치도 제주시 동고산로 1, 3층",제주특별자치도 제주시 이도이동 1180-12,33.4980242,126.5314228
아일랜드 플라워,제주특별자치도 서귀포시 성산읍 서성일로 602,제주특별자치도 서귀포시 성산읍 난산리 2236,33.4243146,126.8496651
아지트포독,제주특별자치도 서귀포시 중앙로 198-20,제주특별자치도 서귀포시 동홍동 1565,33.2620505,126.5606300
아토도예공방,제주특별자치도 서귀포시 남성로 134-1,제주특별자치도 서귀포시 서홍동 744-3,33.2428273,126.5545108
아트진,"제주특별자치도 서귀포시 신서로48번길 31 (강정동, 명성 클리닉 빌딩) 4층 아트진",제주특별자치도 서귀포시 강정동 161-1,33.2535780,126.5086306
아틀리에1950,제주특별자치도 제주시 신광로1길 44 4층,제주특별자치도 제주시 연동 270-21,33.4919123,126.4904526
언더더씨 스쿠버다이빙,제주특별자치도 서귀포시 소암로12번길 9,제주특별자치도 서귀포시 서귀동 65-13,33.2442354,126.5671050
에이스서프,제주특별자치도 제주시 구좌읍 월정7길 62-1,제주특별자치도 제주시 구좌읍 월정리 541,33.5556015,126.7956316
오후 세시의 고양이,제주특별자치도 제주시 설촌로6길 18,제주특별자치도 제주시 삼양이동 2119-3,33.5228037,126.5833717
용연구름다리,제주 제주시 용담1동  2581,제주 제주시 용담1동  2581,33.5026490,126.5114863
웁스마이독,제주특별자치도 서귀포시 안덕면 사계로 112,제주특별자치도 서귀포시 안덕면 사계리 1462-3,33.2402748,126.3003297
원더아일랜드,제주특별자치도 서귀포시 안덕면 신화역사로304번길 89 (서광리) 제주신화월드 서머셋 클럽하우스,제주특별자치도 서귀포시 안덕면 서광리 산24-15,33.3028884,126.3175373
월정퀵서프,제주특별자치도 제주시 구좌읍 해맞이해안로 486,제주특별자치도 제주시 구좌읍 월정리 33-12,33.5547246,126.7988706
위디 탭댄스 스튜디오,제주특별자치도 서귀포시 대정읍 글로벌에듀로 390,제주특별자치도 서귀포시 대정읍 보성리 2476-10,33.2796773,126.2767672
유캔들잇스튜디오,제주특별자치도 제주시 정든로 5,제주특별자치도 제주시 이도이동 396-7,33.4980871,126.5401297
이도씨동물의료센터,제주특별자치도 서귀포시 신서귀로97번길 51,제주특별자치도 서귀포시 강정동 159-8,33.2539739,126.5069911
이루다동물병원,제주특별자치도 제주시 건주로3길 19,제주특별자치도 제주시 도련일동 1917-1,33.5167678,126.5814066
이음새 농장,제주특별자치도 서귀포시 남원읍 위미리 4137-1,제주특별자치도 서귀포시 남원읍 위미리 4137-1,33.2757769,126.6514153
일레븐프리다이빙 제주센터,제주특별자치도 서귀포시 색달로 8,제주특별자치도 서귀포시 색달동 2082-2,33.2591502,126.4048319
